source,site_name,developer,country,longitude,latitude,status,date_commissioned,customers
CLUBER,Andulo,Unkonwn,Angola,16.6940,-11.4840,Unknown,2018-01-01,2000
CLUBER,Bailundo,Unkonwn,Angola,15.8410,-12.1900,Operating,2013-01-01,0
CLUBER,Wako Kungo,Unkonwn,Angola,15.1200,-11.3610,Operating,2013-01-01,0
CLUBER,Cunene,Unkonwn,Angola,14.9700,-16.7510,Operating,2013-01-01,0
CLUBER,Soyo,Unkonwn,Angola,12.3520,-6.1410,Operating,2013-01-01,0
CLUBER,Uige,Unkonwn,Angola,15.0550,-7.6090,Operating,2013-01-01,0
CLUBER,Bonvale,Unkonwn,Burkina Faso,-4.2000,11.7660,Unknown,2017-01-01,0
CLUBER,Bontioli,Unkonwn,Burkina Faso,-3.0770,10.8070,Unknown,2017-01-01,0
CLUBER,Bégédo,Unkonwn,Burkina Faso,-0.7330,11.8030,Unknown,2003-01-01,0
CLUBER,Bittou,Unkonwn,Burkina Faso,-0.3040,11.2570,Unknown,2017-01-01,0
CLUBER,Niagho,Unkonwn,Burkina Faso,-0.8300,11.7330,Unknown,2003-01-01,0
CLUBER,Zabré,Unkonwn,Burkina Faso,-0.6330,11.1833,Unknown,2004-01-01,0
CLUBER,Gori,TIN TUA ONG,Burkina Faso,-2.4000,11.4160,Unknown,2016-01-01,0
CLUBER,Samendeni,Unkonwn,Burkina Faso,-3.3380,12.1430,Unknown,2017-01-01,0
CLUBER,Bilgo,Sonabel,Burkina Faso,12.3000,-1.3400,Operating,2016-01-01,2300
CLUBER,Koutseni,Unkonwn,Burkina Faso,-4.7500,11.2830,Unknown,2017-01-01,0
CLUBER,Andemtenga,Fondation Energies pour le Monde,Burkina Faso,-0.3090,12.3240,Unknown,2008-01-01,0
CLUBER,Balgo,Fondation Energies pour le Monde,Burkina Faso,-0.2650,12.0540,Unknown,2008-01-01,0
CLUBER,Donsin,Fondation Energies pour le Monde,Burkina Faso,-1.2000,11.5830,Unknown,2008-01-01,0
CLUBER,Kalwartenga,Fondation Energies pour le Monde,Burkina Faso,-0.4420,12.3440,Unknown,2008-01-01,0
CLUBER,Kando,Fondation Energies pour le Monde,Burkina Faso,-0.4970,12.3260,Unknown,2008-01-01,0
CLUBER,Lezogotenga,Fondation Energies pour le Monde,Burkina Faso,-0.1690,12.0640,Unknown,2008-01-01,0
CLUBER,Ouenga,Fondation Energies pour le Monde,Burkina Faso,-0.3190,12.4830,Unknown,2008-01-01,0
CLUBER,Peotenga,Fondation Energies pour le Monde,Burkina Faso,-0.4300,12.2460,Unknown,2008-01-01,0
CLUBER,Silmiougou,Fondation Energies pour le Monde,Burkina Faso,-0.2330,12.0660,Unknown,2008-01-01,0
CLUBER,Soalga,Fondation Energies pour le Monde,Burkina Faso,-0.7660,11.9330,Unknown,2008-01-01,0
CLUBER,Tougmetenga,Fondation Energies pour le Monde,Burkina Faso,-0.2830,11.9510,Unknown,2008-01-01,0
CLUBER,Zaka,Fondation Energies pour le Monde,Burkina Faso,-0.0160,11.9660,Unknown,2008-01-01,0
CLUBER,Bon,Unkonwn,Burkina Faso,-2.7500,11.1830,Unknown,2017-01-01,0
CLUBER,Badango,Unkonwn,Burkina Faso,-1.1660,11.1160,Unknown,2017-01-01,0
CLUBER,Oursy,Association Internationale de Développement,Burkina Faso,-0.4550,14.6770,Unknown,2011-01-01,0
CLUBER,Tin-Akoff,Association Internationale de Développement,Burkina Faso,-0.1760,14.9660,Unknown,2011-01-01,0
CLUBER,Gougourou,Unkonwn,Burkina Faso,-2.3330,11.5830,Unknown,2017-01-01,0
CLUBER,Ziga,SPEEDTECH,Burkina Faso,-0.8230,12.6170,Unknown,2017-01-01,0
CLUBER,Diguel,Association Internationale de Développement,Burkina Faso,-1.8830,14.4300,Unknown,2011-01-01,0
CLUBER,Kelbo,Association Internationale de Développement,Burkina Faso,-1.1660,13.8660,Unknown,2011-01-01,0
CLUBER,Arli,Unkonwn,Burkina Faso,1.4660,11.5830,Unknown,2017-01-01,0
CLUBER,Kirgou,Unkonwn,Burkina Faso,0.7160,13.2830,Unknown,2017-01-01,0
CLUBER,Solhan,Association Internationale de Développement,Burkina Faso,0.4540,13.3850,Unknown,2011-01-01,0
CLUBER,Guiba and Bindé,Service international d'Appui au Développement,Burkina Faso,11.4500,-1.0524,Operating,2017-01-01,5000
CLUBER,Baoue,Unkonwn,Burkina Faso,0.5800,10.2590,Unknown,2017-01-01,0
CLUBER,Adamaoua,ONUDI,Cameroon,12.8050,6.9180,Unknown,2018-01-01,0
CLUBER,Mbakaou,Eneo Cameroon S A,Cameroon,12.8110,6.3070,Unknown,2018-01-01,0
CLUBER,Afanloum,REFELA-Cam,Cameroon,11.7060,4.6290,Unknown,2018-01-01,0
CLUBER,Bayomen,Ministère de l’Eau et de l’Energie (Minee),Cameroon,11.1000,4.8660,Operating,2017-01-01,120
CLUBER,Ngoro,Unkonwn,Cameroon,11.3850,4.9530,Unknown,2017-01-01,0
CLUBER,Bambouti / Ngoura,Energy for Development Reasearch Project of the University of Southmpton,Cameroon,14.0200,5.0700,Operating,2015-01-01,0
CLUBER,Angossas,REFELA-Cam,Cameroon,13.1290,3.9740,Unknown,2018-01-01,0
CLUBER,Lomié,Agence d’électrification rurale (AER),Cameroon,13.6300,3.1610,Unknown,2015-01-01,0
CLUBER,Messamena,Agence d’électrification rurale (AER),Cameroon,12.8230,3.7410,Unknown,2015-01-01,0
CLUBER,Messock,Unkonwn,Cameroon,14.0620,3.0850,Unknown,2015-01-01,0
CLUBER,Nkah,ADEID,Cameroon,9.8910,5.0170,Operating,2014-01-01,300
CLUBER,Tcholliré,CANOPY,Cameroon,14.1660,8.3610,Operating,2016-01-01,0
CLUBER,Bangang,Unkonwn,Cameroon,10.1620,5.5300,Unknown,2003-01-01,0
CLUBER,Batié,Unkonwn,Cameroon,10.2650,5.2920,Unknown,2017-01-01,0
CLUBER,Batotcha,Unkonwn,Cameroon,10.346,5.071,Unknown,2000-01-01,0
CLUBER,Messok,Unkonwn,Cameroon,14.0620,3.0850,Unknown,2017-01-01,0
CLUBER,Tchouadeng,ADEID,Cameroon,10.0000,5.4660,Operating,2013-01-01,350
CLUBER,Mintom,REFELA-Cam,Cameroon,15.0160,3.4330,Unknown,2018-01-01,0
CLUBER,Mvomeka’a,Huawei Technologies,Cameroon,12.2660,3.1160,Operating,2015-01-01,0
CLUBER,Bambélé,Unkonwn,Cameroon,9.5880,4.8000,Operating,2006-01-01,0
CLUBER,Békili,Agence d’électrification rurale (AER),Cameroon,9.5100,4.6210,Operating,2006-01-01,0
CLUBER,Falls 210 / Mbonge,Unkonwn,Cameroon,9.0710,4.5470,Operating,2006-01-01,0
CLUBER,Rumpi,Unkonwn,Cameroon,9.1160,4.8330,Unknown,2017-01-01,0
CLUBER,Nganha,Banque Mondiale,Cameroon,13.9240,7.4340,Operating,2010-01-01,0
CLUBER,Bamunkumbit,Unkonwn,Cameroon,10.3370,5.8480,Operating,2010-01-01,0
CLUBER,Bekem,Unkonwn,Cameroon,10.0160,4.7000,Unknown,2014-01-01,0
CLUBER,Bellah,Unkonwn,Cameroon,10.1940,3.2820,Operating,2006-01-01,0
CLUBER,Chutes de Buba,Unkonwn,Cameroon,9.5660,4.6160,Unknown,2014-01-01,0
CLUBER,Edjong,Unkonwn,Cameroon,9.9550,6.8270,Unknown,2014-01-01,0
CLUBER,Famtchuet,Unkonwn,Cameroon,10.4880,5.5060,Unknown,2014-01-01,0
CLUBER,Foumbot,Unkonwn,Cameroon,10.6360,5.5020,Unknown,2014-01-01,0
CLUBER,Jakiri,Unkonwn,Cameroon,10.6390,6.0810,Unknown,2014-01-01,0
CLUBER,Koutaba,Unkonwn,Cameroon,10.7470,5.6360,Unknown,2014-01-01,0
CLUBER,Mak Mo,Unkonwn,Cameroon,9.3670,5.8200,Unknown,2014-01-01,0
CLUBER,Massagam,Unkonwn,Cameroon,10.9780,5.4290,Unknown,2014-01-01,0
CLUBER,Ndokban,Unkonwn,Cameroon,10.2830,4.7500,Unknown,2014-01-01,0
CLUBER,Wabane,Unkonwn,Cameroon,9.3670,5.1570,Operating,2009-01-01,0
CLUBER,Mwanzi,UNDP / GEF / Government of RDC,DR Congo,17.6120,-4.9510,Unknown,2017-01-01,4500
CLUBER,Loano,UNDP / GEF / Government of RDC,DR Congo,11.8350,-4.6300,Unknown,2017-01-01,2183
CLUBER,Mukulu,UNDP / GEF / Government of RDC,DR Congo,19.3000,-5.5500,Unknown,2017-01-01,4330
CLUBER,Munganzaa,UNDP / GEF / Government of RDC,DR Congo,26.4350,-3.3860,Unknown,2017-01-01,4500
CLUBER,Nianza,UNDP / GEF / Government of RDC,DR Congo,27.5430,-11.6540,Unknown,2017-01-01,0
CLUBER,Kintadi,UNDP / GEF / Government of RDC,DR Congo,14.1910,-3.3900,Unknown,2017-01-01,2250
CLUBER,Nsangi,UNDP / GEF / Government of RDC,DR Congo,21.7580,-4.0380,Unknown,2017-01-01,16875
CLUBER,Kikozo (riv. Lubuzi),UNDP / GEF / Government of RDC,DR Congo,12.9400,-4.9880,Unknown,2017-01-01,6919
CLUBER,Tshela,SNEL,DR Congo,12.9330,-4.9660,Operating,2011-01-01,0
CLUBER,Mpozo,SNEL,DR Congo,13.5140,-5.8440,Operating,2011-01-01,0
CLUBER,Zongo,Unkonwn,DR Congo,14.9160,-4.7660,Operating,2011-01-01,0
CLUBER,Buta,Unkonwn,DR Congo,24.7330,2.8160,Operating,2011-01-01,0
CLUBER,Moanda,SNEL,DR Congo,12.3500,-5.9330,Operating,2011-01-01,0
CLUBER,Wuwu,UNDP / GEF / Government of RDC,DR Congo,19.9500,4.6150,Unknown,2017-01-01,2227
CLUBER,Molua,UNDP / GEF / Government of RDC,DR Congo,26.7900,-7.6660,Unknown,2017-01-01,1318
CLUBER,Mole,UNDP / GEF / Government of RDC,DR Congo,28.2860,-1.5950,Unknown,2017-01-01,1130
CLUBER,Karawa,Unkonwn,DR Congo,20.2960,3.3210,Operating,2011-01-01,0
CLUBER,Bumba,Unkonwn,DR Congo,22.4600,2.1900,Operating,2011-01-01,0
CLUBER,LIBENGE,Unkonwn,DR Congo,18.6330,3.6500,Operating,2011-01-01,0
CLUBER,BASANKUSU,Unkonwn,DR Congo,19.8020,1.2220,Operating,2011-01-01,0
CLUBER,MBANDAKA,Unkonwn,DR Congo,18.2550,0.0470,Operating,2011-01-01,0
CLUBER,KABANGU (Bulungu cité),Unkonwn,DR Congo,16.6830,-5.8160,Unknown,2016-01-01,233333
CLUBER,KULUNDJI,Unkonwn,DR Congo,18.5650,-7.6810,Unknown,2016-01-01,3792
CLUBER,YUNGU,Unkonwn,DR Congo,29.1000,-4.8770,Unknown,2016-01-01,582852
CLUBER,LISALA,Unkonwn,DR Congo,21.4870,2.1700,Unknown,2016-01-01,681669
CLUBER,Monkoto,Unkonwn,DR Congo,20.6480,-1.6480,Unknown,2016-01-01,161243
CLUBER,Zongo,Unkonwn,DR Congo,18.6210,4.3240,Unknown,2016-01-01,65349
CLUBER,Djoko-Punda,Unkonwn,DR Congo,20.9800,-5.4400,Unknown,2016-01-01,4002
CLUBER,Kazumba,Unkonwn,DR Congo,22.0320,-6.4130,Unknown,2016-01-01,110136
CLUBER,MWEKA,Unkonwn,DR Congo,21.3310,-4.8310,Unknown,2016-01-01,67336
CLUBER,Chutes Wolf ( Kabinda),Unkonwn,DR Congo,25.8330,-5.5000,Unknown,2016-01-01,0
CLUBER,Kamiji,Unkonwn,DR Congo,18.3650,-6.2310,Unknown,2016-01-01,52103
CLUBER,Kamiji (Kamiji),Unkonwn,DR Congo,23.2830,-6.6500,Unknown,2016-01-01,0
CLUBER,Katanda (Katanda),Unkonwn,DR Congo,29.3410,-0.5400,Unknown,2016-01-01,0
CLUBER,Kole (Kole),Unkonwn,DR Congo,23.1950,-6.0730,Unknown,2016-01-01,0
CLUBER,Lodja (Lodja),Unkonwn,DR Congo,23.5960,-3.5240,Unknown,2016-01-01,0
CLUBER,Lomami (Katako-kombe),Unkonwn,DR Congo,24.4200,-3.3970,Unknown,2016-01-01,0
CLUBER,Ludimbi,Unkonwn,DR Congo,22.7410,-5.7190,Unknown,2016-01-01,0
CLUBER,Ludimbu,Unkonwn,DR Congo,25.2620,-5.2400,Unknown,2016-01-01,202826
CLUBER,Lukenie (Lodja),Unkonwn,DR Congo,18.2460,-2.7970,Unknown,2016-01-01,0
CLUBER,LUNDIMBI,Unkonwn,DR Congo,23.3330,-6.9330,Unknown,2016-01-01,0
CLUBER,Shele (Lodja),Unkonwn,DR Congo,23.8830,-3.4330,Unknown,2016-01-01,0
CLUBER,Tshiala,Unkonwn,DR Congo,23.4150,-10.4050,Unknown,2016-01-01,0
CLUBER,Wembonyama 2,Unkonwn,DR Congo,24.5120,-4.1240,Unknown,2016-01-01,22750
CLUBER,Kihombo,Unkonwn,DR Congo,20.2060,-6.2570,Unknown,2016-01-01,0
CLUBER,KIJIYA,Unkonwn,DR Congo,29.1940,-5.9470,Unknown,2016-01-01,0
CLUBER,Kipushi,Unkonwn,DR Congo,27.6700,-11.4636,Unknown,2016-01-01,1714
CLUBER,Kiswishi,Unkonwn,DR Congo,25.0010,-9.1000,Unknown,2016-01-01,0
CLUBER,Kongolo,Unkonwn,DR Congo,27.2810,-5.3750,Unknown,2016-01-01,2129
CLUBER,Lububu,Unkonwn,DR Congo,25.4850,-7.4690,Unknown,2016-01-01,565
CLUBER,Lukombo,Unkonwn,DR Congo,28.7630,-5.6920,Unknown,2016-01-01,1207
CLUBER,Musokatanda,Unkonwn,DR Congo,25.0830,-10.9160,Unknown,2016-01-01,0
CLUBER,Aru,Unkonwn,DR Congo,30.8380,2.8590,Unknown,2016-01-01,797458
CLUBER,KAMINA,Unkonwn,DR Congo,24.9870,-8.7360,Operating,2011-01-01,0
CLUBER,Tshikapa,Unkonwn,DR Congo,20.7950,-6.4230,Operating,2011-01-01,0
CLUBER,Tskikaji,Unkonwn,DR Congo,22.4560,-5.9760,Operating,2011-01-01,0
CLUBER,Mutefu,UNDP / GEF / Government of RDC,DR Congo,22.1830,-6.5490,Unknown,2017-01-01,3390
CLUBER,Kaluebo,UNDP / GEF / Government of RDC,DR Congo,21.3300,-5.5000,Unknown,2017-01-01,2820
CLUBER,Limboyo,Unkonwn,DR Congo,21.7600,2.0220,Unknown,2016-01-01,0
CLUBER,Lungudi / Tshikapa,EDC,DR Congo,20.8000,-6.4160,Operating,2011-01-01,0
CLUBER,Tshidibai,Unkonwn,DR Congo,22.8660,-6.5000,Unknown,2016-01-01,0
CLUBER,Lukelenge,UNDP / GEF / Government of RDC,DR Congo,26.3670,-7.2080,Unknown,2017-01-01,840000
CLUBER,CHUTE VON FRANCOIS / Luebo,Unkonwn,DR Congo,21.4160,-5.3500,Unknown,2016-01-01,0
CLUBER,LUEKESHI,Unkonwn,DR Congo,23.1450,-6.4660,Unknown,2016-01-01,0
CLUBER,LUSAMBO (DIBAYA),Unkonwn,DR Congo,23.4500,-4.9660,Unknown,2016-01-01,0
CLUBER,MOYO,Unkonwn,DR Congo,22.4660,-6.1900,Unknown,2016-01-01,0
CLUBER,MWEKA,Unkonwn,DR Congo,21.5580,-4.8530,Operating,2011-01-01,0
CLUBER,NDEKESE,Unkonwn,DR Congo,21.3760,-3.4880,Unknown,2016-01-01,0
CLUBER,TSHIBASHI,Unkonwn,DR Congo,22.1330,-5.7500,Unknown,2016-01-01,0
CLUBER,Lubilanji 1,Unkonwn,DR Congo,23.6410,-6.1470,Operating,2011-01-01,0
CLUBER,Mani,Unkonwn,DR Congo,25.3330,-6.4500,Operating,2011-01-01,0
CLUBER,Mwene-Ditu,Unkonwn,DR Congo,23.4530,-7.0090,Operating,2011-01-01,0
CLUBER,Tshala,Unkonwn,DR Congo,22.6660,-8.7830,Operating,2011-01-01,0
CLUBER,MBUJIMAYI,Unkonwn,DR Congo,23.5890,-6.1360,Operating,2011-01-01,0
CLUBER,KASENGA,Unkonwn,DR Congo,26.7580,-10.6220,Operating,2011-01-01,0
CLUBER,KABALO,Unkonwn,DR Congo,26.9260,-6.0320,Operating,2011-01-01,0
CLUBER,KONGOLO,Unkonwn,DR Congo,26.9911,-5.3875,Operating,2011-01-01,0
CLUBER,Kanyama 2,Unkonwn,DR Congo,24.1737,-7.5140,Operating,2011-01-01,0
CLUBER,Lukombe,UNDP / GEF / Government of RDC,DR Congo,28.7609,-5.6910,Unknown,2017-01-01,1207
CLUBER,Ilunga,UNDP / GEF / Government of RDC,DR Congo,26.8902,-5.6748,Unknown,2017-01-01,2129
CLUBER,Lukushi,UNDP / GEF / Government of RDC,DR Congo,25.6500,-7.6167,Unknown,2017-01-01,1687
CLUBER,Dikolongo,Unkonwn,DR Congo,25.9000,-9.9667,Operating,2011-01-01,0
CLUBER,Kabalo 1,Unkonwn,DR Congo,26.9264,-6.0330,Operating,2011-01-01,0
CLUBER,Kakule,Unkonwn,DR Congo,23.0994,-11.0342,Operating,2011-01-01,0
CLUBER,kilubi,Unkonwn,DR Congo,27.1221,-4.3132,Operating,2011-01-01,0
CLUBER,Mitwaba,Unkonwn,DR Congo,27.3470,-8.6466,Operating,2011-01-01,0
CLUBER,Moba,Unkonwn,DR Congo,29.7629,-7.0368,Operating,2011-01-01,0
CLUBER,Sakanya,Unkonwn,DR Congo,28.5594,-12.7496,Operating,2011-01-01,0
CLUBER,Mbankana,UNDP / GEF / Government of RDC,DR Congo,16.2066,-3.5542,Unknown,2017-01-01,17371
CLUBER,KASANGULU,Unkonwn,DR Congo,15.1668,-4.5888,Unknown,2016-01-01,584
CLUBER,KIMPESE,Unkonwn,DR Congo,14.4374,-5.5604,Unknown,2016-01-01,0
CLUBER,NSONA BANGU,Unkonwn,DR Congo,14.0333,-5.7000,Unknown,2016-01-01,0
CLUBER,Kizu,Unkonwn,DR Congo,13.0000,-4.9833,Unknown,2016-01-01,1750
CLUBER,NSONAMPANGU,Unkonwn,DR Congo,14.7078,-5.5933,Unknown,2016-01-01,2334
CLUBER,Kanga,Unkonwn,DR Congo,17.2411,-4.5469,Unknown,2016-01-01,0
CLUBER,MBWANDU,Unkonwn,DR Congo,21.7586,-4.0383,Unknown,2016-01-01,0
CLUBER,MUNDUNDU,Unkonwn,DR Congo,17.7851,-3.0347,Unknown,2016-01-01,0
CLUBER,SIMBA,Unkonwn,DR Congo,17.8669,-4.6536,Unknown,2016-01-01,0
CLUBER,VANGA,Unkonwn,DR Congo,18.4264,-4.4222,Unknown,2016-01-01,0
CLUBER,KABINDA,Unkonwn,DR Congo,24.4886,-6.1374,Operating,2011-01-01,0
CLUBER,Agogo,UNDP / GEF / Government of RDC,DR Congo,27.0000,-4.9760,Unknown,2017-01-01,1700
CLUBER,Munumi,UNDP / GEF / Government of RDC,DR Congo,27.3200,-4.1950,Unknown,2017-01-01,4500
CLUBER,Ambwe,Unkonwn,DR Congo,26.1000,-2.6333,Operating,2011-01-01,0
CLUBER,Balia,Unkonwn,DR Congo,24.6532,2.8486,Operating,2011-01-01,0
CLUBER,Elia,Unkonwn,DR Congo,28.5062,-8.5318,Unknown,2016-01-01,0
CLUBER,KABAMBARE,Unkonwn,DR Congo,27.6934,-4.6893,Unknown,2016-01-01,0
CLUBER,KAILO,Unkonwn,DR Congo,26.1000,-2.6333,Unknown,2016-01-01,0
CLUBER,KALIMA,Unkonwn,DR Congo,26.6167,-2.5667,Unknown,2016-01-01,0
CLUBER,KASONGO,Unkonwn,DR Congo,26.6701,-4.4238,Operating,2011-01-01,0
CLUBER,Kibamba,Unkonwn,DR Congo,26.5504,-4.8855,Unknown,2016-01-01,0
CLUBER,KINDU,Unkonwn,DR Congo,25.9231,-2.9492,Operating,2011-01-01,0
CLUBER,Kunda,Unkonwn,DR Congo,26.5830,-3.9500,Operating,2011-01-01,0
CLUBER,LUAMA,Unkonwn,DR Congo,26.3330,-5.8660,Unknown,2016-01-01,0
CLUBER,Lubiladja,Unkonwn,DR Congo,26.4500,-2.1500,Operating,2011-01-01,0
CLUBER,LUBUTU,Unkonwn,DR Congo,26.5720,-0.7500,Unknown,2016-01-01,0
CLUBER,Lutshurukuru,Unkonwn,DR Congo,26.3500,-2.9000,Operating,2011-01-01,0
CLUBER,Matala,Unkonwn,DR Congo,26.2500,-4.2660,Unknown,2016-01-01,0
CLUBER,BAGATA,Unkonwn,DR Congo,17.9560,-3.7230,Unknown,2016-01-01,0
CLUBER,Oicha Mbau (riv. Mamundioma / site Chochota),UNDP / GEF / Government of RDC,DR Congo,29.3500,0.5870,Unknown,2017-01-01,2250
CLUBER,Kitsumbiro (riv. Kivirikuku),UNDP / GEF / Government of RDC,DR Congo,29.5200,0.2542,Unknown,2017-01-01,1130
CLUBER,Nkanga,UNDP / GEF / Government of RDC,DR Congo,17.3740,-3.3220,Unknown,2017-01-01,2133
CLUBER,Beni,Unkonwn,DR Congo,29.4520,0.4990,Unknown,2016-01-01,408440
CLUBER,Ibanga,Unkonwn,DR Congo,27.8322,-1.5658,Unknown,2016-01-01,30368
CLUBER,LOWA,Unkonwn,DR Congo,25.8463,-1.4015,Unknown,2016-01-01,0
CLUBER,Lubero,Unkonwn,DR Congo,29.2437,-0.1550,Unknown,2016-01-01,43567
CLUBER,LUME,Unkonwn,DR Congo,26.5167,-4.7167,Unknown,2016-01-01,0
CLUBER,TALYA SUD,Unkonwn,DR Congo,29.3330,-0.5170,Unknown,2016-01-01,0
CLUBER,ULINDI,Unkonwn,DR Congo,25.8639,-1.6777,Unknown,2016-01-01,0
CLUBER,Nzoro,Unkonwn,DR Congo,29.5021,3.3279,Operating,2011-01-01,0
CLUBER,Solenyama 1 & 2,Unkonwn,DR Congo,29.8667,1.4500,Operating,2011-01-01,0
CLUBER,Bagbugbuzi (riv. Yame),UNDP / GEF / Government of RDC,DR Congo,25.2410,0.6910,Operating,2017-01-01,1356
CLUBER,Bale,UNDP / GEF / Government of RDC,DR Congo,26.9667,-6.8000,Unknown,2017-01-01,1462
CLUBER,Tsé,UNDP / GEF / Government of RDC,DR Congo,15.1419,-4.4121,Unknown,2017-01-01,3600
CLUBER,Lyenge,UNDP / GEF / Government of RDC,DR Congo,26.6500,-6.6667,Unknown,2017-01-01,1280
CLUBER,LUSAMBO,Unkonwn,DR Congo,23.4478,-4.9653,Operating,2011-01-01,0
CLUBER,Luiro/Formulac,UNDP / GEF / Government of RDC,DR Congo,28.7972,-2.2400,Unknown,2017-01-01,150
CLUBER,Mushuva,UNDP / GEF / Government of RDC,DR Congo,28.8500,-2.3667,Unknown,2017-01-01,300
CLUBER,Sangano,UNDP / GEF / Government of RDC,DR Congo,26.0466,-10.6544,Unknown,2017-01-01,120
CLUBER,Lubumba,UNDP / GEF / Government of RDC,DR Congo,29.8545,-7.3873,Unknown,2017-01-01,8980
CLUBER,Bufelro,Unkonwn,DR Congo,29.0558,-3.0081,Unknown,2016-01-01,29950
CLUBER,Lubilu,Unkonwn,DR Congo,27.0667,-2.2000,Operating,2011-01-01,0
CLUBER,Mungombe,Unkonwn,DR Congo,22.4333,-10.8000,Operating,2011-01-01,0
CLUBER,Mususu,Unkonwn,DR Congo,28.6736,-2.7364,Unknown,2016-01-01,0
CLUBER,MUTAMBALA,Unkonwn,DR Congo,29.8167,-7.3333,Unknown,2016-01-01,0
CLUBER,Ruzizi 2,Unkonwn,DR Congo,28.8931,-2.4903,Operating,2011-01-01,0
CLUBER,ULINDI,Unkonwn,DR Congo,25.8639,-1.6777,Unknown,2016-01-01,0
CLUBER,GEMENA,Unkonwn,DR Congo,19.7833,3.2500,Operating,2011-01-01,0
CLUBER,BOENDE,Unkonwn,DR Congo,20.8333,-0.2167,Operating,2011-01-01,0
CLUBER,LISALA,Unkonwn,DR Congo,21.5167,2.1500,Operating,2011-01-01,0
CLUBER,Leku Migira,GIZ - Energising Development Ethiopia,Ethiopia,36.4400,7.5400,Operating,2016-01-01,207
CLUBER,Hagara Sodicha,GIZ - Energising Development Ethiopia,Ethiopia,38.5200,6.6200,Operating,2012-01-01,288
CLUBER,Beshiro Gute,"GIZ, Energising Development",Ethiopia,38.6700,6.5500,Operating,2012-01-01,158
CLUBER,Gobecho I,GIZ - Energising Development Ethiopia,Ethiopia,38.7100,6.5900,Operating,2012-01-01,167
CLUBER,Gobecho II,GIZ - Energising Development Ethiopia,Ethiopia,38.7100,6.5900,Operating,2012-01-01,44
CLUBER,Pediatorkope,GEDAP Project,Ghana,0.6300,5.8190,Operating,2016-01-01,0
CLUBER,Aglakope,GEDAP Project,Ghana,0.0656,7.5908,Operating,2016-01-01,124
CLUBER,Merti,KPLC,Kenya,38.6667,1.0667,Operating,2008-01-01,436
CLUBER,Hola,KPLC,Kenya,40.0333,-1.5000,Operating,2008-01-01,1956
CLUBER,Naivasha,Thomson Reuters Foundation,Kenya,36.4310,-0.7172,Operating,2017-01-01,6000
CLUBER,Kerio,Unkonwn,Kenya,34.8667,3.6500,Unknown,2016-01-01,0
CLUBER,Dadaab,Unkonwn,Kenya,40.3191,0.0926,Unknown,2014-01-01,10064
CLUBER,Dujis,Unkonwn,Kenya,39.2969,0.2617,Unknown,2013-01-01,0
CLUBER,Hulugho,Unkonwn,Kenya,41.0667,-1.1500,Unknown,2014-01-01,759
CLUBER,Ijara,Unkonwn,Kenya,40.5136,-1.5988,Unknown,2013-01-01,0
CLUBER,Liboi,Unkonwn,Kenya,40.8756,0.3556,Unknown,2016-01-01,0
CLUBER,Kibuogi,Unkonwn,Kenya,34.0897,-0.5228,Unknown,2013-01-01,0
CLUBER,Magata,Unkonwn,Kenya,34.0112,-0.1336,Unknown,2013-01-01,0
CLUBER,Mfangano,KPLC,Kenya,34.0084,-0.4594,Operating,2011-01-01,120
CLUBER,Ngodhe,Unkonwn,Kenya,34.1906,-0.3539,Unknown,2013-01-01,0
CLUBER,Ringiti,Unkonwn,Kenya,33.9455,-0.4611,Unknown,2013-01-01,0
CLUBER,Takawiri,Unkonwn,Kenya,34.0878,-0.4756,Unknown,2013-01-01,0
CLUBER,Oloika,Southampton University / Rural Electrification Authority,Kenya,37.5500,-2.2667,Operating,2016-01-01,0
CLUBER,Shampole,Southampton University / Rural Electrification Authority,Kenya,36.0492,-2.0167,Operating,2016-01-01,0
CLUBER,Nadapal,Unkonwn,Kenya,34.2837,4.4051,Unknown,2016-01-01,0
CLUBER,Thima / Mukengeria,Nottingham Trent University,Kenya,37.3000,-0.5167,Operating,2001-01-01,110
CLUBER,Ukasi,Unkonwn,Kenya,38.5362,-0.8048,Unknown,2013-01-01,0
CLUBER,Shimoni island,Unkonwn,Kenya,39.3841,-4.6479,Unknown,2013-01-01,0
CLUBER,Faza,KPLC,Kenya,41.1056,-2.0667,Operating,2014-01-01,1681
CLUBER,Kiunga,Unkonwn,Kenya,41.4888,-1.7455,Unknown,2014-01-01,762
CLUBER,Kiwayuu,Unkonwn,Kenya,41.2733,-2.0006,Unknown,2013-01-01,0
CLUBER,Mpeketoni,KPLC,Kenya,40.6968,-2.3905,Operating,2008-01-01,1503
CLUBER,Kitonyoni,Southampton University / Rural Electrification Authority,Kenya,37.6560,-1.9552,Operating,2016-01-01,0
CLUBER,Banisa,Unkonwn,Kenya,40.3500,3.9500,Unknown,2014-01-01,3217
CLUBER,Eldas,KPLC,Kenya,39.5670,2.4850,Operating,2012-01-01,80
CLUBER,Elwak,KPLC,Kenya,40.9280,2.8070,Operating,2009-01-01,802
CLUBER,Kotulo,Unkonwn,Kenya,40.5940,2.4090,Unknown,2014-01-01,0
CLUBER,Mandera,KPLC,Kenya,41.855,3.935,Operating,2000-01-01,4000
CLUBER,Rhamu,KPLC,Kenya,41.2250,3.9310,Operating,2012-01-01,2132
CLUBER,Takaba,KPLC,Kenya,40.2220,3.3550,Operating,2012-01-01,300
CLUBER,Korr,Unkonwn,Kenya,37.5080,2.0090,Unknown,2013-01-01,0
CLUBER,Bubisa,Unkonwn,Kenya,38.0830,2.7500,Unknown,2016-01-01,0
CLUBER,Dukana,GIZ/KfW,Kenya,37.4160,4.0830,Unknown,2016-01-01,0
CLUBER,Furole,Unkonwn,Kenya,37.9650,3.7140,Unknown,2016-01-01,0
CLUBER,Laisamis,KPLC,Kenya,37.8060,1.5960,Operating,2014-01-01,1456
CLUBER,Maikona,Unkonwn,Kenya,37.6300,2.9360,Unknown,2014-01-01,1208
CLUBER,Marsabit,KPLC,Kenya,37.994,2.335,Operating,2000-01-01,3300
CLUBER,Ngurunit,GIZ/KfW,Kenya,37.3070,1.7290,Unknown,2016-01-01,0
CLUBER,North Horr,KPLC,Kenya,37.0690,3.3200,Operating,2014-01-01,1883
CLUBER,South Horr,Unkonwn,Kenya,36.9160,2.0900,Unknown,2013-01-01,0
CLUBER,Mujwa,Missionary,Kenya,37.6950,0.0610,Operating,2002-01-01,0
CLUBER,Talek,GIZ Energy,Kenya,35.3000,-1.3830,Operating,2016-01-01,0
CLUBER,Darade,Unkonwn,Kenya,36.5720,3.6170,Unknown,2016-01-01,0
CLUBER,Illeret,Unkonwn,Kenya,36.4380,4.0310,Unknown,2016-01-01,0
CLUBER,Baragoi,KPLC,Kenya,36.7870,1.7850,Operating,2009-01-01,230
CLUBER,Barsaroi,Unkonwn,Kenya,36.8660,1.3330,Unknown,2013-01-01,0
CLUBER,Illaut,Unkonwn,Kenya,36.6660,1.1660,Unknown,2016-01-01,0
CLUBER,Marti,Unkonwn,Kenya,36.7160,1.4660,Unknown,2013-01-01,0
CLUBER,Sereolipi,Unkonwn,Kenya,37.5970,1.1250,Unknown,2013-01-01,0
CLUBER,Bangale,Unkonwn,Kenya,39.0130,-0.7290,Unknown,2013-01-01,0
CLUBER,Del Monte,Unkonwn,Kenya,37.1176,-1.0307,Unknown,2013-01-01,0
CLUBER,Gold(makutano),Unkonwn,Kenya,35.2470,3.5410,Unknown,2013-01-01,0
CLUBER,Kakuma,Unkonwn,Kenya,34.8569,3.7168,Unknown,2014-01-01,0
CLUBER,Kalokol,GIZ/KfW,Kenya,35.8580,3.5269,Unknown,2016-01-01,0
CLUBER,Lodwar,KPLC,Kenya,35.6041,3.1155,Operating,2001-01-01,2380
CLUBER,Lokichoggio,KPLC,Kenya,34.3588,4.2020,Operating,2012-01-01,166
CLUBER,Lokiriama,Unkonwn,Kenya,34.8770,2.7570,Unknown,2014-01-01,482
CLUBER,Lokitaung,KPLC,Kenya,35.7460,4.2750,Operating,2014-01-01,7239
CLUBER,Lokori,KPLC,Kenya,36.0290,1.9540,Operating,2014-01-01,8261
CLUBER,Loyangalani,Unkonwn,Kenya,36.7190,2.7600,Unknown,2016-01-01,0
CLUBER,Nachokui,Unkonwn,Kenya,35.8370,4.1080,Unknown,2016-01-01,0
CLUBER,Oropoi,Unkonwn,Kenya,34.2500,3.8000,Unknown,2016-01-01,0
CLUBER,Todonyang,Unkonwn,Kenya,35.9280,4.4500,Unknown,2016-01-01,0
CLUBER,Turkwel,Unkonwn,Kenya,36.1530,3.0720,Unknown,2016-01-01,0
CLUBER,Kakuma,Unkonwn,Kenya,34.8560,3.7160,Unknown,2016-01-01,0
CLUBER,Napeitom,Unkonwn,Kenya,36.0400,1.7300,Unknown,2016-01-01,0
CLUBER,Kalokol,Unkonwn,Kenya,35.7830,3.4280,Unknown,2016-01-01,0
CLUBER,Kaeris,Unkonwn,Kenya,35.4790,3.9820,Unknown,2016-01-01,0
CLUBER,Kibish,Unkonwn,Kenya,35.6820,5.3420,Unknown,2016-01-01,0
CLUBER,Kokuro,Unkonwn,Kenya,35.0650,4.7230,Unknown,2016-01-01,0
CLUBER,Lokamarinyang,Unkonwn,Kenya,35.7280,5.0590,Unknown,2016-01-01,0
CLUBER,Lowarangak,Unkonwn,Kenya,35.8720,4.2430,Unknown,2016-01-01,0
CLUBER,Biyamadhow,Rural Electrification Authority,Kenya,40.4120,0.6150,Unknown,2016-01-01,200
CLUBER,Habaswein,KPLC,Kenya,39.4920,1.0160,Operating,2008-01-01,1015
CLUBER,Barsaloi,Unkonwn,Kenya,36.8600,1.3390,Unknown,2017-01-01,0
CLUBER,Chania River,KTDA power,Kenya,36.9700,-0.4210,Unknown,2015-01-01,0
CLUBER,Chepkumia,Global Sustainable Limited,Kenya,34.9330,1.3330,Unknown,2019-01-01,0
CLUBER,Dabel,Unkonwn,Kenya,39.2660,3.0830,Unknown,2017-01-01,0
CLUBER,Elegeyo Marakwet,Craftskill EA Ltd,Kenya,35.5080,0.6720,Unknown,2019-01-01,0
CLUBER,Embu,Kenya Tea Development Agency (KTDA),Kenya,37.4590,-0.5380,Unknown,2016-01-01,0
CLUBER,Enkoireroi,Unkonwn,Kenya,36.4340,-1.3950,Unknown,2017-01-01,0
CLUBER,GAKURUGU (RIVER THUCI),Unkonwn,Kenya,37.5730,-0.3710,Unknown,2008-01-01,0
CLUBER,Gari,Unkonwn,Kenya,40.9000,3.3830,Unknown,2016-01-01,0
CLUBER,Githunguri,Unkonwn,Kenya,36.7770,-1.0580,Unknown,2012-01-01,0
CLUBER,Gucha,KTDA,Kenya,34.7290,-0.8380,Unknown,2017-01-01,0
CLUBER,Gura River,Gura shp,Kenya,36.7790,-0.5230,Unknown,2016-01-01,0
CLUBER,IGOJI / MUTONGA RIVER,Responsibility Africa,Kenya,37.6750,-0.2040,Unknown,2019-01-01,0
CLUBER,Iraru River,"KTDA Ltd,",Kenya,37.7660,-1.5000,Unknown,2018-01-01,0
CLUBER,Iyego / River South Matioya,Cube Energy Limited,Kenya,37.0330,-0.6830,Unknown,2019-01-01,0
CLUBER,Kadaina islands,Unkonwn,Kenya,39.9550,-3.3810,Unknown,2017-01-01,0
CLUBER,Kaeris,Unkonwn,Kenya,35.4790,3.9820,Unknown,2017-01-01,0
CLUBER,Kakamega,Unkonwn,Kenya,34.7510,0.2820,Unknown,2013-01-01,0
CLUBER,"KANORO, MARA RIVER",Unkonwn,Kenya,35.0220,-1.3860,Unknown,2009-01-01,0
CLUBER,Kapkateny falls,A.M. Ventures LTD,Kenya,34.6160,0.8000,Unknown,2018-01-01,0
CLUBER,Kathita River,Mt Kenya Community Based Organisation,Kenya,37.6560,0.0390,Unknown,2017-01-01,0
CLUBER,"Kerenge, Tagabi, Jamji,",Unilever Tea Kenya Ltd,Kenya,35.1920,-0.4690,Unknown,2015-01-01,0
CLUBER,Kerio,Unkonwn,Kenya,36.2190,2.7610,Unknown,2017-01-01,0
CLUBER,Kerugoya/ Kathamba,Unkonwn,Kenya,37.2780,-0.4990,Operating,2001-01-01,60
CLUBER,Kibisi falls / river Nzoia,Kibis Kinetic Energy Ltd,Kenya,34.5070,0.3710,Unknown,2017-01-01,0
CLUBER,KIENI,Unkonwn,Kenya,36.8790,-0.9370,Unknown,2013-01-01,0
CLUBER,Kipsono,KTDA,Kenya,35.1070,-0.7050,Unknown,2017-01-01,0
CLUBER,KIRIMA KIANTHI / KAZITA RIVER,Hydro Project Service Peters,Kenya,37.4700,-0.0260,Unknown,2017-01-01,0
CLUBER,Mageta,Unkonwn,Kenya,34.0160,-0.1333,Unknown,2017-01-01,0
CLUBER,Mara River,"KTDA Ltd,",Kenya,35.0220,-1.3860,Unknown,2018-01-01,0
CLUBER,Maramtu,Unkonwn,Kenya,39.5833,-0.5000,Unknown,2012-01-01,0
CLUBER,Merile,Unkonwn,Kenya,37.7224,1.4192,Unknown,2017-01-01,0
CLUBER,Mwatate,Unkonwn,Kenya,38.3640,-3.5033,Unknown,2012-01-01,0
CLUBER,Mwea,Unkonwn,Kenya,37.3595,-0.6689,Unknown,2013-01-01,0
CLUBER,Mweru / River North Mathioya,Cube Energy Limited,Kenya,37.1000,-0.6167,Unknown,2019-01-01,0
CLUBER,Namba Koloo,Unkonwn,Kenya,34.2694,0.2386,Unknown,2017-01-01,0
CLUBER,Nanna,Unkonwn,Kenya,37.9062,-0.0236,Unknown,2017-01-01,0
CLUBER,Ndau,Unkonwn,Kenya,35.9500,0.5500,Unknown,2013-01-01,0
CLUBER,Ngodhe,Unkonwn,Kenya,34.1906,-0.3539,Unknown,2017-01-01,0
CLUBER,Nithi River,Civicon Ltd,Kenya,37.4067,-0.1690,Unknown,2020-01-01,0
CLUBER,Nyamindi River,"KTDA Ltd,",Kenya,37.3854,-0.5514,Unknown,2018-01-01,0
CLUBER,Nzoia (Sidhikho),Global Sustainable Ltd,Kenya,33.9490,0.0485,Unknown,2018-01-01,0
CLUBER,Olenarau,Unkonwn,Kenya,37.0000,1.8333,Unknown,2017-01-01,0
CLUBER,Olturoto,Unkonwn,Kenya,36.9376,-1.6431,Unknown,2017-01-01,0
CLUBER,Opiroi,Unkonwn,Kenya,36.8132,1.1554,Unknown,2017-01-01,0
CLUBER,river Mathioya,Cube Energy Limited,Kenya,37.2474,-0.7082,Unknown,2019-01-01,0
CLUBER,River Nithi,Frontier Investment Management,Kenya,37.9782,-0.1570,Unknown,2017-01-01,0
CLUBER,River Nyamindi,Greenlight Holdings,Kenya,37.3854,-0.5514,Unknown,2018-01-01,0
CLUBER,River yala,Tindinyo Falls Resort,Kenya,34.1864,-0.0077,Unknown,2016-01-01,0
CLUBER,Sagan River,Kirengete Hydro Power Company/ Kirinyaga west hydro power company ltd,Kenya,37.2000,-0.6500,Unknown,2019-01-01,0
CLUBER,Sagana River,Lucid Power Generation Company,Kenya,37.2061,-0.6695,Unknown,2019-01-01,0
CLUBER,South Iment,KTDA,Kenya,37.7000,-0.6667,Operating,2009-01-01,0
CLUBER,Takawiri,Unkonwn,Kenya,34.0878,-0.4756,Unknown,2017-01-01,0
CLUBER,Tenwek,Missionary,Kenya,35.3590,-0.7435,Operating,2002-01-01,0
CLUBER,Teremi Falls,"GenPro, Shp",Kenya,34.6333,0.7500,Unknown,2016-01-01,0
CLUBER,Tungu-Kabiru / Tungu,UNDP,Kenya,37.475,-0.35,Operating,2000-01-01,200
CLUBER,Wasini/Mkwiro,Unkonwn,Kenya,39.3646,-4.6579,Unknown,2017-01-01,0
CLUBER,Webuye Falls,Que Energy/ western hydro,Kenya,34.7796,0.5992,Unknown,2018-01-01,0
CLUBER,Margibi,Unkonwn,Liberia,-10.3049,6.5152,Unknown,2020-01-01,0
CLUBER,Bong,NRICA,Liberia,-9.6667,6.9000,Unknown,2019-01-01,0
CLUBER,Bong,Unkonwn,Liberia,-9.3673,6.8295,Operating,2016-01-01,0
CLUBER,Lofa,NRICA,Liberia,-9.7233,8.2011,Operating,2017-01-01,205
CLUBER,Lofa,PLAN & VOSIEDA,Liberia,-9.9233,8.1911,Operating,2017-01-01,0
CLUBER,Lofa,PLAN & VOSIEDA,Liberia,-9.6233,8.1611,Operating,2017-01-01,0
CLUBER,Lofa,PLAN & VOSIEDA,Liberia,-9.7233,8.1711,Operating,2017-01-01,0
CLUBER,Lofa,PLAN & VOSIEDA,Liberia,-9.7233,8.1911,Operating,2017-01-01,0
CLUBER,Lofa,RREA,Liberia,-9.7233,8.1811,Unknown,2019-01-01,50005
CLUBER,Lofa,RREA,Liberia,-9.7233,8.1911,Operating,2013-01-01,1169
CLUBER,Lofa,PLAN & VOSIEDA,Liberia,-9.7233,8.2211,Operating,2017-01-01,0
CLUBER,Nimba,NRICA,Liberia,-8.6601,6.8428,Operating,2016-01-01,0
CLUBER,Andriatsiazo,AIDER,Madagascar,47.7800,-19.1600,Operating,2010-01-01,0
CLUBER,Ambohidreny,AIDER,Madagascar,47.7700,-18.4300,Operating,2012-01-01,0
CLUBER,Andranofeno sud,Association des usagers,Madagascar,47.1700,-18.0600,Operating,2007-01-01,0
CLUBER,Andriatsemboka,AIDER,Madagascar,47.4700,-19.0400,Operating,2010-01-01,0
CLUBER,Ankadinandriana,MoneyTech,Madagascar,47.5300,-18.9200,Operating,2011-01-01,0
CLUBER,Ambaravaranala,AIDER,Madagascar,47.8300,-19.1300,Operating,2010-01-01,0
CLUBER,Belobaka,Henri Fraise et Fils,Madagascar,45.6900,-18.9800,Operating,2017-01-01,0
CLUBER,Mandalobe,CASIELEC,Madagascar,46.1100,-19.1100,Unknown,2017-01-01,2930
CLUBER,Antoby est,3ERAE,Madagascar,46.9200,-19.0700,Operating,2015-01-01,0
CLUBER,Ankaranana,Association FAHAZAVANA,Madagascar,46.3600,-19.3000,Operating,2011-01-01,0
CLUBER,Ankazomiriotra,Power & Water,Madagascar,46.5100,-19.6100,Operating,2005-01-01,0
CLUBER,Mandoto,Power & Water,Madagascar,46.2900,-19.5800,Operating,2007-01-01,0
CLUBER,Ivovona,MAD'EOLE,Madagascar,49.3900,-12.3200,Operating,2010-01-01,0
CLUBER,Sahasifotra,MAD-EOLE,Madagascar,49.2800,-12.4700,Operating,2007-01-01,0
CLUBER,Ambolobozobe,MAD'EOLE,Madagascar,49.5200,-12.4500,Unknown,2010-01-01,0
CLUBER,Ambolobozokely,MAD'EOLE,Madagascar,49.5200,-12.4500,Unknown,2010-01-01,0
CLUBER,Fandriana,HIER,Madagascar,47.3700,-20.2300,Operating,2014-01-01,0
CLUBER,Soavina - Ilaka centre,HIER,Madagascar,47.1600,-20.3300,Operating,2015-01-01,0
CLUBER,Ambohimahamasina,COMMUNE,Madagascar,47.1800,-21.9300,Operating,2005-01-01,0
CLUBER,Sahatona,HIER,Madagascar,47.1000,-20.9600,Unknown,2017-01-01,0
CLUBER,Tolongoina,SM3E,Madagascar,47.5100,-21.5500,Operating,2016-01-01,0
CLUBER,Antanimbary,CASIELEC,Madagascar,46.8500,-17.1800,Operating,2005-01-01,442
CLUBER,Mahazoma,CASIELEC,Madagascar,46.5700,-17.1700,Operating,2006-01-01,229
CLUBER,Ambondromamy,CASIELEC,Madagascar,47.1600,-16.4400,Operating,2009-01-01,524
CLUBER,Andranofasika,CASIELEC,Madagascar,46.8400,-16.3400,Operating,2005-01-01,321
CLUBER,Andranomamy,CASIELEC,Madagascar,47.1300,-16.5300,Operating,2009-01-01,187
CLUBER,Anjijia,CASIELEC,Madagascar,46.9500,-16.4600,Operating,2009-01-01,307
CLUBER,Ankazomborona,CASIELEC,Madagascar,46.6800,-16.1000,Operating,2005-01-01,0
CLUBER,Madirovalo,CASIELEC,Madagascar,46.5400,-16.4400,Operating,2006-01-01,0
CLUBER,Manerinerina,CASIELEC,Madagascar,47.3000,-16.2800,Operating,2009-01-01,312
CLUBER,Tsaramandroso,CASIELEC,Madagascar,47.0400,-16.3600,Operating,2006-01-01,101
CLUBER,Besakoa Mahajamba,EDM,Madagascar,47.0600,-15.6700,Operating,2005-01-01,0
CLUBER,Marosakoa,CASIELEC,Madagascar,46.7500,-16.1700,Operating,2006-01-01,0
CLUBER,Katsepy,CASIELEC,Madagascar,46.2400,-15.7700,Operating,2005-01-01,148
CLUBER,Bealalana,Unkonwn,Madagascar,48.7500,-14.5500,Unknown,2017-01-01,0
CLUBER,Imerimandroso,BETC,Madagascar,48.5900,-17.4300,Operating,2012-01-01,0
CLUBER,Manakambahiny ouest,JIRAMA,Madagascar,48.3300,-17.8000,Operating,2004-01-01,0
CLUBER,Tanambe,JIRAMA,Madagascar,48.4500,-17.3600,Operating,2001-01-01,0
CLUBER,Anosibe an'Ala,JIRAMA,Madagascar,48.2000,-19.4300,Operating,2008-01-01,0
CLUBER,Amboasary,BETC,Madagascar,48.2600,-18.4400,Unknown,2006-01-01,0
CLUBER,Foulepointe,JIRAMA,Madagascar,49.51,-17.68,Operating,2000-01-01,0
CLUBER,Tsaravinany,COGIC,Madagascar,48.6500,-19.6800,Operating,2009-01-01,0
CLUBER,Amboanaivo,Association Angovo Soan'Androy,Madagascar,45.5600,-25.1300,Operating,2016-01-01,0
CLUBER,Beanantara,Association Fihamy,Madagascar,46.2300,-25.0500,Operating,2016-01-01,0
CLUBER,Maroalimainty,Association TELORAE TEA FAHAZAVAGNE,Madagascar,46.2000,-25.1600,Operating,2016-01-01,0
CLUBER,Antanimora sud,Ambinintsoa Energy,Madagascar,45.6500,-24.8100,Operating,2007-01-01,0
CLUBER,Ambondro,Association Angovo Soan'Androy,Madagascar,45.8200,-25.2100,Operating,2010-01-01,0
CLUBER,Marovato,Association Angovo Soan'Androy,Madagascar,45.7400,-25.3100,Operating,2016-01-01,0
CLUBER,Ifotaka,Entreprise TOKY Construction,Madagascar,46.1300,-24.8100,Operating,2015-01-01,0
CLUBER,Tanandava,Entreprise TOKY Construction,Madagascar,46.4600,-25.1300,Operating,2016-01-01,0
CLUBER,Mahatalaky,Entreprise TOKY Construction,Madagascar,47.0800,-24.8300,Operating,2015-01-01,0
CLUBER,Fotadrevo,Association,Madagascar,45.0100,-24.0500,Operating,2006-01-01,0
CLUBER,Ejeda,Entreprise,Madagascar,44.5100,-24.3400,Operating,2007-01-01,0
CLUBER,Ankililoaka,ALM GUANO,Madagascar,43.6100,-22.7600,Operating,2008-01-01,0
CLUBER,Ankilizato,HIER,Madagascar,45.0400,-20.4100,Operating,2015-01-01,0
CLUBER,Malaimbandy,POWER & WATER,Madagascar,45.5900,-20.3400,Operating,2009-01-01,0
CLUBER,Ambatolahy,Commune,Madagascar,45.5300,-20.0000,Operating,2006-01-01,0
CLUBER,IhanakataneII / Commune de Talataye,Unkonwn,Mali,1.2100,16.2800,Unknown,2017-01-01,0
CLUBER,Tabango / Commune de Bara,Unkonwn,Mali,0.4600,15.7300,Unknown,2017-01-01,0
CLUBER,Ikarbaganene II / Commune de Tilemsi,NL,Mali,0.9760,17.0247,Unknown,2017-01-01,0
CLUBER,Menaka,ETM,Mali,2.3900,15.9100,Unknown,2018-01-01,0
CLUBER,Guindinta / Commune de Diakon,KAMA,Mali,-10.3200,14.4500,Operating,2015-01-01,0
CLUBER,Loumbama / Commune de Diakon,KAMA,Mali,-10.2300,14.3800,Unknown,2017-01-01,0
CLUBER,Trentoumou / Commune de Diakon,KAMA,Mali,-10.1900,14.4700,Unknown,2017-01-01,0
CLUBER,Farabougou / Commune de camara,sans opérateur,Mali,-7.7500,13.5800,Unknown,2017-01-01,0
CLUBER,Ambidédikoré / Commune de Kaffo,KURUMBA,Mali,-11.7900,14.5800,Unknown,2017-01-01,0
CLUBER,Aourou / Commune de Djelebou,GIE KAKERIFO,Mali,-11.5800,14.9700,Unknown,2017-01-01,0
CLUBER,Bongourou / Commune de Liberte Dembaya,sans opérateur,Mali,-11.5100,14.4800,Unknown,2017-01-01,0
CLUBER,Gakoura / Commune de Kafo,KURUMBA,Mali,-11.9700,14.6500,Unknown,2017-01-01,0
CLUBER,Sansangué / Commune de Guidimakan Kéry Kafo,NL,Mali,-11.9600,14.7800,Unknown,2017-01-01,0
CLUBER,Troun / Commune de Sero Diamanou,sans opérateur,Mali,-11.1100,14.8000,Unknown,2017-01-01,0
CLUBER,Falea / Commune de Falea,NL,Mali,-11.2700,12.2600,Unknown,2017-01-01,0
CLUBER,Dialaya / Commune de Bendougouba,sans opérateur,Mali,-9.4200,13.0100,Unknown,2017-01-01,0
CLUBER,Gavinane / Commune de Gavinane,Unkonwn,Mali,-9.8800,15.1300,Unknown,2017-01-01,0
CLUBER,Kouroukere / Commune de Yerere,NL,Mali,-9.4800,15.4200,Unknown,2017-01-01,0
CLUBER,Saourane,MOHACOM,Mali,-10.8100,14.3200,Operating,2014-01-01,0
CLUBER,Dialaka / Commune de Tringa,SSD Kuraye Kurumba,Mali,-10.8000,14.6300,Unknown,2017-01-01,0
CLUBER,Kodié / Commune de Guidime,SSD Kuraye Kurumba,Mali,-10.5300,15.2000,Unknown,2017-01-01,0
CLUBER,Sambaga / Commune de Diafounou Gory,SSD Kuraye Kurumba,Mali,-10.6600,15.1100,Unknown,2017-01-01,0
CLUBER,Sambakanou / Commune de Gory,SSD Kuraye Kurumba,Mali,-10.7000,15.1100,Unknown,2017-01-01,0
CLUBER,Batama,GIE KALAOU-MOULINE,Mali,-11.1600,13.0600,Unknown,2018-01-01,0
CLUBER,Diankounté,KAGNELA,Mali,-9.8459,13.0142,Unknown,2018-01-01,0
CLUBER,Digokory,ARLF,Mali,-12.0000,14.6700,Unknown,2018-01-01,0
CLUBER,Djédigui Kassé,KAMA,Mali,-10.2900,14.4700,Operating,2015-01-01,0
CLUBER,Djidjan,SOGEP,Mali,-9.4500,13.2000,Unknown,2018-01-01,0
CLUBER,Djoumara,BECI,Mali,-8.5600,14.5400,Unknown,2018-01-01,0
CLUBER,Dogofiry,SSD KK,Mali,-10.9300,15.0100,Unknown,2018-01-01,0
CLUBER,Doualé,KAMA,Mali,-10.3100,14.4500,Operating,2015-01-01,0
CLUBER,Gagny,SSD KK,Mali,-11.6800,14.5900,Unknown,2018-01-01,0
CLUBER,Gakoura,SSD KK,Mali,-11.9700,14.6500,Unknown,2018-01-01,0
CLUBER,Gory,SSD KK,Mali,-10.7500,15.1100,Unknown,2018-01-01,0
CLUBER,Gouméra,BLUE SKY,Mali,-11.3000,14.5500,Unknown,2018-01-01,0
CLUBER,Kabou,ARLF,Mali,-3.4400,15.5200,Unknown,2018-01-01,0
CLUBER,Kakoulou,GIE DJEYASSO,Mali,-5.6400,13.4800,Unknown,2018-01-01,0
CLUBER,Kalaou,GIE KALAOU-MOULINE,Mali,-10.9800,14.5300,Unknown,2018-01-01,0
CLUBER,Kandia,KAMA,Mali,-11.0400,14.7600,Operating,2015-01-01,0
CLUBER,Kembé,KAMA,Mali,-10.4600,14.5000,Unknown,2018-01-01,0
CLUBER,Kembélé,KAMA,Mali,-10.2200,14.4200,Unknown,2018-01-01,0
CLUBER,Kénéiba,KAMA,Mali,-11.1600,12.7500,Operating,2013-01-01,0
CLUBER,Kersignagné Diafounou,SSD KK,Mali,-10.8700,15.0700,Unknown,2018-01-01,0
CLUBER,Kersignagné Kaniaga,SSD KK,Mali,-10.9800,14.9900,Unknown,2018-01-01,0
CLUBER,Kirané,SSD KK,Mali,-10.2300,15.4100,Unknown,2018-01-01,0
CLUBER,Kokofata,SABOU,Mali,-9.9400,12.8800,Unknown,2018-01-01,0
CLUBER,Kouri,KAMA,Mali,-10.3600,14.2200,Unknown,2018-01-01,0
CLUBER,Kourounidifing,KAMA,Mali,-10.5500,14.5000,Operating,2015-01-01,0
CLUBER,Kourounikoto,SOGEP,Mali,-10.4000,12.6000,Unknown,2018-01-01,0
CLUBER,Lambidou,ABIS DISTRIBUTION,Mali,-9.5600,14.3100,Unknown,2018-01-01,0
CLUBER,Madiga Sacko,KAMA,Mali,-9.3000,14.3500,Unknown,2018-01-01,0
CLUBER,Madina,KAMA,Mali,-8.8600,13.4000,Operating,2015-01-01,0
CLUBER,Mélo,BLUE SKY,Mali,-11.0200,14.7800,Unknown,2018-01-01,0
CLUBER,Sadiola,KAMA,Mali,-11.7000,13.8900,Operating,2013-01-01,0
CLUBER,Sagabary,EGEC,Mali,-9.8000,12.5800,Unknown,2018-01-01,0
CLUBER,Sélinkégni,MOHA-COM,Mali,-10.7800,14.0900,Unknown,2018-01-01,0
CLUBER,Séro,BLUE SKY,Mali,-11.0600,14.8000,Unknown,2018-01-01,0
CLUBER,Soboukou,ARLF,Mali,-11.9800,14.6600,Unknown,2018-01-01,0
CLUBER,Tambaga,ESE2,Mali,-9.2200,15.2900,Unknown,2018-01-01,0
CLUBER,Tigana,MOHACOM,Mali,-10.7600,14.2600,Operating,2014-01-01,0
CLUBER,Toukoto,Unkonwn,Mali,-9.8800,13.4400,Unknown,2018-01-01,0
CLUBER,Troungoumbé,BMB,Mali,-9.2300,15.2600,Unknown,2018-01-01,0
CLUBER,Yaguiné-Sambakanou,SSD KK,Mali,-10.7200,15.1300,Unknown,2018-01-01,0
CLUBER,Essouk / Commune de Essouk,Comité local,Mali,2.3400,18.8300,Unknown,2017-01-01,0
CLUBER,Adjelhock / Commune de Tessalit,NL,Mali,0.8500,19.4600,Unknown,2017-01-01,0
CLUBER,Kiban / Commune de Kiban,Unkonwn,Mali,-7.3500,13.5700,Unknown,2017-01-01,0
CLUBER,Béléko Soba / Commune de Diedougou,NL,Mali,-6.4000,12.4700,Unknown,2017-01-01,0
CLUBER,Déguéla / Commune de Minidian,NL,Mali,-8.3900,11.9800,Unknown,2017-01-01,0
CLUBER,Kafara / Commune de Ouellessobougou,SAFEELEC,Mali,-7.8000,12.1300,Unknown,2017-01-01,0
CLUBER,Kéniéroba / Commune de Bancoumana,NL,Mali,-8.3300,12.1000,Unknown,2017-01-01,0
CLUBER,N'Tjiba,ACCESS,Mali,-7.3600,12.3100,Operating,2017-01-01,0
CLUBER,Néguéla / Commune de Bossofala,NL,Mali,-6.5000,11.2600,Unknown,2017-01-01,0
CLUBER,Sougoula / Commune de Ouellessobougou,SAFEELEC,Mali,-7.7700,12.0800,Unknown,2017-01-01,0
CLUBER,Tiélé / Commune de Tiele,NL,Mali,-7.5700,12.3000,Unknown,2017-01-01,0
CLUBER,Yelekebougou / Commune de Yelekebougou,NL,Mali,-8.0300,12.9600,Unknown,2017-01-01,0
CLUBER,Ouolodo / Commune de Oulodo,NL,Mali,-7.9200,13.1900,Unknown,2017-01-01,0
CLUBER,Tioribougou / Commune de Tioribougou,NL,Mali,-7.9800,13.3700,Unknown,2017-01-01,0
CLUBER,Tioribougou / Commune de Tioribougou,NL,Mali,-7.9800,13.3700,Unknown,2017-01-01,0
CLUBER,Doumba / Commune de Doumba,NL,Mali,-7.6100,13.0200,Unknown,2017-01-01,0
CLUBER,Sirakorola-Ouest / Commune de Sirakorola,NL,Mali,-7.5600,13.2800,Unknown,2017-01-01,0
CLUBER,Balle / Commune de Dogofry,Unkonwn,Mali,-8.5800,15.3300,Unknown,2017-01-01,0
CLUBER,Dilly / Commune de Dilly,Unkonwn,Mali,-7.6600,14.9900,Unknown,2017-01-01,0
CLUBER,Guire / Commune de Guire,NL,Mali,-6.6900,14.6400,Unknown,2017-01-01,0
CLUBER,Bancoumana,ACCESS sarl,Mali,-8.2600,12.2000,Operating,2015-01-01,0
CLUBER,Digan,SAFELEC,Mali,-6.8000,10.8600,Unknown,2018-01-01,0
CLUBER,Kéla,YIRIIMEX,Mali,-8.4500,11.8900,Unknown,2018-01-01,0
CLUBER,Korokoto,KNEM,Mali,-10.0800,12.5800,Unknown,2018-01-01,0
CLUBER,Kourémalé,SPE,Mali,-8.7800,11.9500,Operating,2015-01-01,0
CLUBER,Sanankoro Djitoumou,SAFEELEC,Mali,-6.6000,10.8300,Unknown,2018-01-01,0
CLUBER,Tinkélé,SAFEELEC,Mali,-7.9600,11.8900,Unknown,2018-01-01,0
CLUBER,Konio / Commune de Dandougou- Fakala,NL,Mali,-4.4700,13.6800,Unknown,2017-01-01,0
CLUBER,Kouakourou / Commune de Kewa,NL,Mali,-4.4900,14.2200,Unknown,2017-01-01,0
CLUBER,Madiama / Commune de Madiama,NL,Mali,-4.3900,13.7900,Unknown,2017-01-01,0
CLUBER,Soha / Commune de Nema-badenyakafo,Unkonwn,Mali,-4.7100,13.8700,Unknown,2017-01-01,0
CLUBER,Somadougou / Commune de Sio,NL,Mali,-4.0600,14.2800,Unknown,2017-01-01,0
CLUBER,Boré / Commune de Dangol-Boré,NL,Mali,-3.4800,15.1300,Unknown,2017-01-01,0
CLUBER,Hombori / Commune de Hombori,Unkonwn,Mali,-1.7000,15.2800,Unknown,2017-01-01,0
CLUBER,Hamdallaye / Commune de Sio,sans opérateur,Mali,-4.0900,14.3300,Unknown,2017-01-01,0
CLUBER,Soufourlaye / Commune de Sio,NL,Mali,-4.0800,14.4100,Unknown,2017-01-01,0
CLUBER,Dioura / Commune de Kareri,NL,Mali,-5.2200,14.8800,Unknown,2017-01-01,0
CLUBER,Toguere Coumbé / Commune de Toguere Coumbé,NL,Mali,-4.5900,14.9100,Unknown,2017-01-01,0
CLUBER,Nouh Peulh / Commune de Diafarabe,sans opérateur,Mali,-4.9800,14.1400,Unknown,2017-01-01,0
CLUBER,Boni,EGI,Mali,-2.2200,15.0700,Unknown,2018-01-01,0
CLUBER,Dia,SEER,Mali,-4.9500,14.3500,Unknown,2018-01-01,0
CLUBER,Dinagourou,KAMA,Mali,-2.2400,14.4400,Unknown,2018-01-01,0
CLUBER,Douary,KAMA,Mali,-2.3000,14.5300,Unknown,2018-01-01,0
CLUBER,Téné,FASO TRAVAUX,Mali,-4.8000,13.3300,Unknown,2018-01-01,0
CLUBER,Fangasso / Commune de Fangasso,NL,Mali,-4.6400,13.3300,Unknown,2017-01-01,0
CLUBER,Tamani / Commune de Tamani,NL,Mali,-6.8300,13.3300,Unknown,2017-01-01,0
CLUBER,Diaramana / Commune de Diaramana,Unkonwn,Mali,-5.4100,12.8400,Unknown,2017-01-01,0
CLUBER,Dougouolo / Commune de Dougouolo,NL,Mali,-5.5600,12.9200,Unknown,2017-01-01,0
CLUBER,Bertha / Commune de Saloba,Unkonwn,Mali,-5.1900,13.7200,Unknown,2018-01-01,0
CLUBER,Boubamorybougou / Commune de Sana,Unkonwn,Mali,-5.0800,13.8200,Unknown,2018-01-01,0
CLUBER,Diago / Commune de Sana,Unkonwn,Mali,-8.1500,12.7700,Unknown,2018-01-01,0
CLUBER,Diffoula / Commune de Saloba,Unkonwn,Mali,-5.2400,13.6800,Unknown,2018-01-01,0
CLUBER,Dionbougouba / Commune de Saloba,Unkonwn,Mali,-5.2100,13.7100,Unknown,2018-01-01,0
CLUBER,Dionbougoura / Commune de Saloba,Unkonwn,Mali,-5.2400,13.6900,Unknown,2018-01-01,0
CLUBER,Kakan / Commune de Saloba,Unkonwn,Mali,-5.5400,13.9200,Unknown,2018-01-01,0
CLUBER,Kallala Bambara / Commune de Sana,Unkonwn,Mali,-5.1100,13.7600,Unknown,2018-01-01,0
CLUBER,Kallala Peulh / Commune de Sana,Unkonwn,Mali,-5.1100,13.7700,Unknown,2018-01-01,0
CLUBER,Kerta / Commune de Sana,Unkonwn,Mali,-5.0000,13.7700,Unknown,2018-01-01,0
CLUBER,Kienkourou / Commune de Sana,Unkonwn,Mali,-5.0300,13.8100,Unknown,2018-01-01,0
CLUBER,Kougodiani / Commune de Sana,Unkonwn,Mali,-5.0100,13.8000,Unknown,2018-01-01,0
CLUBER,Mangoni / Commune de Saloba,Unkonwn,Mali,-5.2900,13.6700,Unknown,2018-01-01,0
CLUBER,Massa Were / Commune de Saloba,Unkonwn,Mali,-5.2900,13.6600,Unknown,2018-01-01,0
CLUBER,Matomo / Commune de Matomo,NL,Mali,-4.9667,13.8500,Unknown,2017-01-01,0
CLUBER,Missena / Commune de Saloba,Unkonwn,Mali,-5.2700,13.7000,Unknown,2018-01-01,0
CLUBER,Motomo / Commune de Sana,Unkonwn,Mali,-4.9700,13.6400,Unknown,2018-01-01,0
CLUBER,Niantilela / Commune de Saloba,Unkonwn,Mali,-5.2500,13.7100,Unknown,2018-01-01,0
CLUBER,Ouan Marka / Commune de Saloba,Unkonwn,Mali,-5.2700,13.6900,Unknown,2018-01-01,0
CLUBER,Sarro / Commune de Saloba,Unkonwn,Mali,-5.2300,13.7200,Unknown,2017-01-01,0
CLUBER,Sarro / Commune de Saloba,Unkonwn,Mali,-5.2400,13.7200,Unknown,2018-01-01,0
CLUBER,Saye / Commune de Sana,Unkonwn,Mali,-5.0000,13.8200,Unknown,2018-01-01,0
CLUBER,Sellen / Commune de Saloba,Unkonwn,Mali,-5.2100,13.6900,Unknown,2018-01-01,0
CLUBER,Sewere / Commune de Sana,Unkonwn,Mali,-4.9900,13.8100,Unknown,2018-01-01,0
CLUBER,Tlengolola / Commune de Sana,Unkonwn,Mali,-5.0500,13.8100,Unknown,2018-01-01,0
CLUBER,Toumabougou / Commune de Saloba,Unkonwn,Mali,-5.2300,13.6900,Unknown,2018-01-01,0
CLUBER,Diambé / Commune de Diabaly,NL,Mali,-5.9000,14.6200,Unknown,2017-01-01,0
CLUBER,Dinso / Commune de N'Goa,NL,Mali,-8.0800,10.4600,Unknown,2017-01-01,0
CLUBER,Mandiakuy / Commune de Mandiakuy,NL,Mali,-4.4600,13.0100,Unknown,2017-01-01,0
CLUBER,Sy / Commune de Sy,NL,Mali,-4.9700,13.6000,Unknown,2017-01-01,0
CLUBER,Cinzana / Commune de Cinzana,SDD,Mali,-5.9600,13.2600,Unknown,2017-01-01,0
CLUBER,Dougoukouna / Commune de Sebougou,SDD,Mali,-6.3700,13.3700,Unknown,2017-01-01,0
CLUBER,Koula / Commune de Koula,NL,Mali,-7.6500,13.1100,Unknown,2017-01-01,0
CLUBER,Boidié,GIE FITINE,Mali,-6.8700,13.1200,Unknown,2018-01-01,0
CLUBER,Dioro,EPRODED,Mali,-6.5000,12.8300,Unknown,2018-01-01,0
CLUBER,Farakala,SEECO,Mali,-5.3500,12.9100,Unknown,2018-01-01,0
CLUBER,Kamba,GIE FITINE,Mali,-2.9800,12.6300,Unknown,2018-01-01,0
CLUBER,Sokolo,SEECO,Mali,-6.1100,14.7300,Unknown,2018-01-01,0
CLUBER,Ténéni,SEECO,Mali,-4.7900,13.3300,Operating,2015-01-01,0
CLUBER,Touna,SEECO,Mali,-5.8300,13.1100,Unknown,2018-01-01,0
CLUBER,Yangasso,SEECO,Mali,-5.3200,13.0600,Unknown,2018-01-01,0
CLUBER,Koualé / Commune de Koumantou,sans opérateur,Mali,-7.0100,11.4000,Unknown,2017-01-01,0
CLUBER,SANSO / Commune de SANSO,SSD YELEN KURA,Mali,-6.8400,11.7100,Unknown,2017-01-01,0
CLUBER,Sido / Commune de Sido,sans opérateur,Mali,-7.6000,11.6700,Unknown,2017-01-01,0
CLUBER,Denié,ACCESS,Mali,-6.4344,11.5400,Unknown,2018-01-01,0
CLUBER,Kolondiéba,SSD-EN SA Yeelen Kura,Mali,-6.8900,11.0900,Operating,2011-01-01,0
CLUBER,FIZANKORO / Commune de KONSEGUELA,SSD YELEN KURA,Mali,-5.7600,12.3900,Unknown,2017-01-01,0
CLUBER,GOUANTIESSO / Commune de M'PESSOBA,SSD YELEN KURA,Mali,-5.5600,12.7300,Unknown,2017-01-01,0
CLUBER,KINTIERI / Commune de M'PESSOBA,SSD YELEN KURA,Mali,-5.7100,12.7300,Unknown,2017-01-01,0
CLUBER,Dembéla / Commune de Dembela,sans opérateur,Mali,-6.3600,11.7300,Unknown,2017-01-01,0
CLUBER,Missirikoro / Commune de Missirikoro,sans opérateur,Mali,-5.7500,11.2600,Unknown,2017-01-01,0
CLUBER,N'kourala / Commune de Kapolondougou,ACCESS,Mali,-6.1000,11.3500,Unknown,2017-01-01,0
CLUBER,Samogossoni / Commune de Diomatene,sans opérateur,Mali,-5.6200,11.3900,Unknown,2017-01-01,0
CLUBER,Sirakoro / Commune de Yiridougou,ESE2,Mali,-9.2200,12.6800,Unknown,2017-01-01,0
CLUBER,Ouassada / Commune de Wassoulou-bale,sans opérateur,Mali,-8.0500,11.0500,Unknown,2017-01-01,0
CLUBER,N'GOROLA / Commune de KOURY,SSD YELEN KURA,Mali,-4.7200,12.2600,Unknown,2017-01-01,0
CLUBER,TANDIO / Commune de KOURY,SSD YELEN KURA,Mali,-4.9500,12.1600,Unknown,2017-01-01,0
CLUBER,Faragouara,ACCESS,Mali,-7.7700,11.3100,Unknown,2018-01-01,0
CLUBER,Foulalaba,ACCESS,Mali,-7.3600,10.6800,Unknown,2018-01-01,0
CLUBER,Goualala,ACCESS,Mali,-8.2300,11.2100,Unknown,2018-01-01,0
CLUBER,Kébila,ACCESS sarl,Mali,-7.0400,11.2700,Operating,2014-01-01,0
CLUBER,Kignan,SSD-EN SA Yeelen Kura,Mali,-6.0200,11.8500,Operating,2012-01-01,0
CLUBER,Kimparana,SSD-EN SA Yeelen Kura,Mali,-4.9200,12.8300,Operating,2008-01-01,0
CLUBER,Koloni,ACCESS,Mali,-7.4800,12.0400,Unknown,2018-01-01,0
CLUBER,Koumantou,SSD-EN SA Yeelen Kura,Mali,-6.8400,11.4000,Operating,2012-01-01,0
CLUBER,Kouri,SSD-EN SA Yeelen Kura,Mali,-4.8000,12.2000,Operating,2012-01-01,0
CLUBER,Lobougoula,EAT,Mali,-5.9800,11.0400,Unknown,2018-01-01,0
CLUBER,M'pessoba,SSD-EN SA Yeelen Kura,Mali,-5.7200,12.6700,Operating,2012-01-01,0
CLUBER,Madina Kouroulamini,ACCESS,Mali,-7.7800,10.3100,Unknown,2018-01-01,0
CLUBER,Manankoro,ACCESS sarl,Mali,-7.4400,10.4500,Operating,2014-01-01,0
CLUBER,N'Goko,COGEACOM,Mali,-6.0400,10.4000,Unknown,2018-01-01,0
CLUBER,Niena,SSD-EN SA Yeelen Kura,Mali,-6.3500,11.4300,Operating,2012-01-01,0
CLUBER,Ourikela,SSD-EN SA Yeelen Kura,Mali,-5.0700,12.1100,Operating,2011-01-01,0
CLUBER,Yorosso,SSD-EN SA Yeelen Kura,Mali,-4.8100,12.3000,Operating,2012-01-01,0
CLUBER,Zantiebougou,ACCESS sarl,Mali,-7.2500,11.3800,Operating,2014-01-01,0
CLUBER,Bourem sidi amar / Commune de Bourem sidi,NL,Mali,-0.2990,17.6600,Unknown,2017-01-01,0
CLUBER,Atta / Commune de Tonka,sans opérateur,Mali,-3.7000,16.1900,Unknown,2017-01-01,0
CLUBER,Bintagoungou / Commune de Bintagoungou,MairieBintagoungou,Mali,-3.7300,16.7300,Unknown,2017-01-01,0
CLUBER,Douékiré / Commune de Douekire,EMC,Mali,-3.3700,16.5700,Unknown,2017-01-01,0
CLUBER,M'Bouna / Commune de M'Bouna,ALBARKAYERKOYE,Mali,-3.9700,16.6800,Unknown,2017-01-01,0
CLUBER,Meykoré / Commune de Tonka,EMC,Mali,-3.7200,16.2700,Unknown,2017-01-01,0
CLUBER,Toukabangou / Commune de Issa Bery,sans opérateur,Mali,-3.7800,16.7200,Unknown,2017-01-01,0
CLUBER,Yourmi / Commune de Tonka,sans opérateur,Mali,-3.8300,16.1600,Unknown,2017-01-01,0
CLUBER,Bambaramaoude / Commune de Bambaramaoude,NL,Mali,-2.7800,15.8400,Unknown,2017-01-01,0
CLUBER,Gossi,Gourma construction,Mali,-1.3000,15.8200,Unknown,2018-01-01,0
CLUBER,Lere,Enord,Mali,-4.9000,15.7100,Unknown,2018-01-01,0
CLUBER,Sangafé / Commune de Diakon,KAMA,Mali,-10.3600,14.6000,Unknown,2017-01-01,0
CLUBER,Brakna,CDS,Mauritania,-13.1740,17.2318,Unknown,2009-01-01,0
CLUBER,Gorgol Guidimakha,CDS,Mauritania,-12.3486,15.3067,Unknown,2008-01-01,0
CLUBER,Trarza,CDS,Mauritania,-14.6588,17.8665,Unknown,2010-01-01,0
CLUBER,Atar,SOMELEC,Mauritania,-13.0530,20.5073,Unknown,2017-01-01,0
CLUBER,Aleg,SOMELEC,Mauritania,-13.9167,17.0500,Unknown,2017-01-01,0
CLUBER,WALY DIANTANG,Unkonwn,Mauritania,-12.8667,15.3333,Operating,2010-01-01,0
CLUBER,Adel Bagrou,APAUS,Mauritania,-7.0230,15.6753,Unknown,2017-01-01,0
CLUBER,ADEL BAGROU,Unkonwn,Mauritania,-7.0230,15.6753,Operating,2009-01-01,0
CLUBER,Néma,APAUS,Mauritania,-7.2500,16.6167,Unknown,2017-01-01,0
CLUBER,Tidjikja,SOMELEC,Mauritania,-11.5248,18.6414,Unknown,2017-01-01,0
CLUBER,Adrar,GRET,Mauritania,-10.06666667,20.5,Operating,2000-01-01,20
CLUBER,Aftout,IBD,Mauritania,-12.6210,16.7110,Unknown,2016-01-01,0
CLUBER,ARR,Unkonwn,Mauritania,-7.2667,16.1167,Operating,2009-01-01,0
CLUBER,Bellewakh,APAUS,Mauritania,-16.0722,18.5181,Unknown,2016-01-01,100
CLUBER,BIR MOUGHREN,Unkonwn,Mauritania,-11.5788,25.2322,Operating,2005-01-01,0
CLUBER,Birette,Unkonwn,Mauritania,-15.8127,16.5122,Operating,2016-01-01,0
CLUBER,Chami,Unkonwn,Mauritania,-15.9674,20.0508,Operating,2014-01-01,0
CLUBER,CHOUM,Unkonwn,Mauritania,-13.0681,21.3000,Operating,2010-01-01,0
CLUBER,DAFOR,Unkonwn,Mauritania,-12.1500,15.6667,Operating,2009-01-01,0
CLUBER,Dhar,Unkonwn,Mauritania,-12.8055,19.8652,Unknown,2016-01-01,0
CLUBER,El Ghediya,Unkonwn,Mauritania,-11.4858,17.7839,Unknown,2015-01-01,0
CLUBER,Keur Macène,GRET,Mauritania,-16.2330925,16.5583683,Operating,2000-01-01,57
CLUBER,Keur Massene,CDS,Mauritania,-16.2522,16.7297,Unknown,2008-01-01,117
CLUBER,Kiffa,AFD / UE,Mauritania,-11.4011,16.5427,Operating,2016-01-01,0
CLUBER,Kser Torchane,Unkonwn,Mauritania,-13.0167,20.6997,Unknown,2015-01-01,0
CLUBER,Lemcid,APAUS,Mauritania,-16.1375,18.6881,Unknown,2016-01-01,40
CLUBER,Lemhaijratt,APAUS,Mauritania,-16.2322,19.0314,Unknown,2016-01-01,230
CLUBER,LEXEIBA,Unkonwn,Mauritania,-12.4500,14.9167,Operating,2009-01-01,0
CLUBER,M’Ballal,GRET,Mauritania,-16.0140586,16.6600329,Operating,2000-01-01,51
CLUBER,MAAL,Unkonwn,Mauritania,-13.4553,17.1081,Operating,2009-01-01,0
CLUBER,Magham Ibrahim,GRET,Mauritania,-14.8556774,16.7581428,Operating,2000-01-01,52
CLUBER,Mamghar,Unkonwn,Mauritania,-16.5167,19.3667,Operating,2013-01-01,0
CLUBER,MATTA MOULANA,Unkonwn,Mauritania,-9.6903,16.1208,Operating,2009-01-01,0
CLUBER,MEDBOUGOU,Unkonwn,Mauritania,-9.4853,15.5235,Operating,2009-01-01,0
CLUBER,MONGUEL,Unkonwn,Mauritania,-13.1524,16.3733,Operating,2009-01-01,0
CLUBER,N’BEIKE,Unkonwn,Mauritania,-15.7136,17.1614,Operating,2009-01-01,0
CLUBER,N’Diago-Ebden,Unkonwn,Mauritania,-16.5075,16.1669,Operating,2015-01-01,0
CLUBER,N’Houkara,GRET,Mauritania,-15.76777778,17.0025,Operating,2000-01-01,51
CLUBER,Nouelki pk40,GRET,Mauritania,-16.0783,16.6842,Operating,2000-01-01,50
CLUBER,Nuamghar,GRET,Mauritania,-16.5127441,19.3567958,Operating,2000-01-01,56
CLUBER,OUALATA,Unkonwn,Mauritania,-7.0216,17.2990,Operating,2005-01-01,0
CLUBER,Rachid,CDS,Mauritania,-11.6833,18.8000,Unknown,2007-01-01,205
CLUBER,RACHID,Unkonwn,Mauritania,-11.6833,18.8000,Operating,2005-01-01,0
CLUBER,TAGUILALET,Unkonwn,Mauritania,-15.5196,17.0441,Operating,2009-01-01,0
CLUBER,TAMCHEKET,Unkonwn,Mauritania,-10.6696,17.2456,Operating,2005-01-01,0
CLUBER,TECHTAYE,Unkonwn,Mauritania,-7.0239,16.3844,Operating,2010-01-01,0
CLUBER,Termessa,Unkonwn,Mauritania,-8.8908,16.0639,Operating,2014-01-01,0
CLUBER,Tichitt,CDS,Mauritania,-9.4958,18.4401,Unknown,2007-01-01,176
CLUBER,TICHITT,Unkonwn,Mauritania,-9.4958,18.4401,Operating,2005-01-01,0
CLUBER,Tidjikja,Unkonwn,Mauritania,-11.5248,18.6414,Unknown,2016-01-01,0
CLUBER,Tighent,GRET,Mauritania,-16.0878,17.2403,Operating,2000-01-01,63
CLUBER,Tiwillit,APAUS,Mauritania,-16.1728,18.8719,Unknown,2016-01-01,60
CLUBER,TOUIL,Unkonwn,Mauritania,-10.1167,15.5333,Operating,2009-01-01,0
CLUBER,VASSALA,Unkonwn,Mauritania,-10.9408,21.0078,Operating,2009-01-01,0
CLUBER,WOMPOU,Unkonwn,Mauritania,-12.7256,15.1311,Operating,2009-01-01,0
CLUBER,Zouerate,SNIM,Mauritania,-12.4753,22.7325,Unknown,2016-01-01,0
CLUBER,Majaua,FUNAE,Mozambique,35.2900,-16.2300,Operating,2013-01-01,5000
CLUBER,Bokki Saboundou,PNUD,Senegal,-12.8835,14.6185,Unknown,2015-01-01,0
CLUBER,Banipelly,PNUD,Senegal,-12.4527,14.2876,Unknown,2015-01-01,0
CLUBER,Débikholé 695,Unkonwn,Senegal,-12.1495,14.6367,Unknown,2015-01-01,0
CLUBER,Hamadji 1168,PNUD,Senegal,-12.2277,14.6112,Unknown,2015-01-01,0
CLUBER,Laminia,Unkonwn,Senegal,-12.1102,12.6399,Unknown,2015-01-01,0
CLUBER,landébaytil,PNUD,Senegal,-12.4019,12.5572,Unknown,2015-01-01,0
CLUBER,Samécouta,Unkonwn,Senegal,-12.1322,12.6052,Unknown,2015-01-01,0
CLUBER,Syllacounda,PNUD,Senegal,-12.3793,12.5968,Unknown,2015-01-01,0
CLUBER,Boutougoufara,PNUD,Senegal,-12.4833,13.4000,Unknown,2015-01-01,0
CLUBER,Dalafing,PNUD,Senegal,-12.4015,13.6593,Unknown,2015-01-01,0
CLUBER,Dianke Makhan,PNUD,Senegal,-12.6583,13.6741,Unknown,2015-01-01,0
CLUBER,Goutta Cebbe,PNUD,Senegal,-12.7136,13.6182,Unknown,2015-01-01,0
CLUBER,Kayan,PNUD,Senegal,-12.3199,13.3076,Unknown,2015-01-01,0
CLUBER,KOMOTI,PNUD,Senegal,-12.9155,13.6627,Unknown,2015-01-01,0
CLUBER,Diagaly,PNUD,Senegal,-14.6740,15.2752,Unknown,2015-01-01,0
CLUBER,Loumbeul Lana,PNUD,Senegal,-14.7278,15.2653,Unknown,2015-01-01,0
CLUBER,Touba Samady,PNUD,Senegal,-14.7377,15.1575,Unknown,2015-01-01,0
CLUBER,Daharatou,PNUD,Senegal,-12.2623,14.5188,Unknown,2015-01-01,0
CLUBER,Dialiguel,Unkonwn,Senegal,-12.1993,14.5570,Unknown,2015-01-01,0
CLUBER,Diboly,PNUD,Senegal,-12.2050,14.4639,Unknown,2015-01-01,0
CLUBER,Guita,PNUD,Senegal,-12.2245,14.3834,Unknown,2015-01-01,0
CLUBER,Nayes,PNUD,Senegal,-12.2036,14.4182,Unknown,2015-01-01,0
CLUBER,Oubawol,PNUD,Senegal,-12.3007,14.4850,Unknown,2015-01-01,0
CLUBER,Ouro Sileye,PNUD,Senegal,-12.3886,14.5020,Unknown,2015-01-01,0
CLUBER,Sinthiou Dialiguel,PNUD,Senegal,-12.2127,14.5388,Unknown,2015-01-01,0
CLUBER,Sinthiou Diohe,PNUD,Senegal,-12.2431,14.4679,Unknown,2015-01-01,0
CLUBER,Theyéne Djoloff,PNUD,Senegal,-15.6558,15.5642,Unknown,2015-01-01,0
CLUBER,Yatti,PNUD,Senegal,-15.7069,15.5222,Unknown,2015-01-01,0
CLUBER,BOYNGUEL BAMBA,PNUD,Senegal,-12.9337,14.0919,Unknown,2015-01-01,0
CLUBER,DIEYLANI,PNUD,Senegal,-12.6938,13.9110,Unknown,2015-01-01,0
CLUBER,KOUDY,PNUD,Senegal,-12.7631,14.0299,Unknown,2015-01-01,0
CLUBER,Yaré,PNUD,Senegal,-14.5271,16.0349,Unknown,2015-01-01,0
CLUBER,Madiou (03),Unkonwn,Senegal,-12.0152,12.4440,Unknown,2015-01-01,0
CLUBER,Niagalan,Unkonwn,Senegal,-11.9832,12.4268,Unknown,2015-01-01,0
CLUBER,Secréta (03),Unkonwn,Senegal,-11.9516,12.4342,Unknown,2015-01-01,0
CLUBER,Toumania,Unkonwn,Senegal,-11.9325,12.4443,Unknown,2015-01-01,0
CLUBER,Walangkingui,Unkonwn,Senegal,-12.0330,12.4270,Unknown,2015-01-01,0
CLUBER,Sanghé,PNUD,Senegal,-15.3700,15.0098,Unknown,2015-01-01,0
CLUBER,Tobéne,PNUD,Senegal,-14.6528,14.0668,Unknown,2015-01-01,0
CLUBER,Kamara,PNUD,Senegal,-15.5287,15.5220,Unknown,2015-01-01,0
CLUBER,BAMBADINKA,PNUD,Senegal,-13.4142,13.5725,Unknown,2015-01-01,0
CLUBER,TABANDING,PNUD,Senegal,-14.3998,13.4928,Unknown,2015-01-01,0
CLUBER,GOUMBAYEL,PNUD,Senegal,-13.1725,13.6883,Unknown,2015-01-01,0
CLUBER,NOUMOUYEL,PNUD,Senegal,-13.3753,13.7010,Unknown,2015-01-01,0
CLUBER,THIARA,PNUD,Senegal,-13.8059,13.6039,Unknown,2015-01-01,0
CLUBER,DOULAYABE,PNUD,Senegal,-12.6080,14.0958,Unknown,2015-01-01,0
CLUBER,KOUSSAN,PNUD,Senegal,-12.4415,14.1304,Unknown,2015-01-01,0
CLUBER,SINTHIOU DEMBA (Sinthiou Moussa),PNUD,Senegal,-12.7491,14.1564,Unknown,2015-01-01,0
CLUBER,Badagore,PNUD,Senegal,-14.5164,15.7764,Unknown,2015-01-01,0
CLUBER,Lougeré Thioly,PNUD,Senegal,-14.6249,15.5647,Unknown,2015-01-01,0
CLUBER,Ndiayéne séno,PNUD,Senegal,-14.4119,15.6204,Unknown,2015-01-01,0
CLUBER,LALLI,Unkonwn,Senegal,-12.1643,14.1126,Unknown,2015-01-01,0
CLUBER,MEDINA FOULBE,Unkonwn,Senegal,-12.0810,13.8524,Unknown,2015-01-01,0
CLUBER,Barocounda,PNUD,Senegal,-14.0957,13.6715,Unknown,2015-01-01,0
CLUBER,Fadiyacounda,PNUD,Senegal,-14.1588,13.6547,Unknown,2015-01-01,0
CLUBER,Maka cissé,PNUD,Senegal,-14.3152,13.5448,Unknown,2015-01-01,0
CLUBER,Sao Soucouta,PNUD,Senegal,-14.3593,13.5860,Unknown,2015-01-01,0
CLUBER,Tabanding,PNUD,Senegal,-14.3998,13.4928,Unknown,2015-01-01,0
CLUBER,Guirounasse,PNUD,Senegal,-14.1767,15.7637,Unknown,2015-01-01,0
CLUBER,Mbaye Hawa,PNUD,Senegal,-15.5571,15.7701,Unknown,2015-01-01,0
CLUBER,Négué Mbeyenne,PNUD,Senegal,-15.5862,15.6980,Unknown,2015-01-01,0
CLUBER,Nawré,PNUD,Senegal,-14.4440,15.0517,Unknown,2015-01-01,0
CLUBER,Patoulane Wolof,PNUD,Senegal,-14.6072,14.1243,Unknown,2015-01-01,0
CLUBER,Laminia,Unkonwn,Senegal,-12.0277,13.6065,Unknown,2015-01-01,0
CLUBER,Medina Tracole,Unkonwn,Senegal,-12.1863,14.0423,Unknown,2015-01-01,0
CLUBER,Sansanding,PNUD,Senegal,-12.2141,13.9282,Unknown,2015-01-01,0
CLUBER,Toumboura,PNUD,Senegal,-12.2141,13.9671,Unknown,2015-01-01,0
CLUBER,SINTHIOU BOCAR ALY,PNUD,Senegal,-13.5694,14.2279,Unknown,2015-01-01,0
CLUBER,Samba Colo,PNUD,Senegal,-12.3797,14.2200,Unknown,2015-01-01,0
CLUBER,Seoudji,PNUD,Senegal,-12.4333,14.3176,Unknown,2015-01-01,0
CLUBER,Youpe Hamady,PNUD,Senegal,-12.3985,14.3475,Unknown,2015-01-01,0
CLUBER,DIARRE MABOUBE II,PNUD,Senegal,-12.6694,14.4959,Unknown,2015-01-01,0
CLUBER,LORIDJE,PNUD,Senegal,-12.9108,14.2272,Unknown,2015-01-01,0
CLUBER,Amady,PNUD,Senegal,-15.2767,15.7352,Unknown,2015-01-01,0
CLUBER,Téssékéré,PNUD,Senegal,-15.0655,15.8519,Unknown,2015-01-01,0
CLUBER,Widou Thiéngoly,PNUD,Senegal,-15.3276,15.9942,Unknown,2015-01-01,0
CLUBER,Khoghé,PNUD,Senegal,-15.1677,15.2903,Unknown,2015-01-01,0
CLUBER,Dolly,PNUD,Senegal,-15.1452,14.7532,Unknown,2015-01-01,0
CLUBER,Sillat,PNUD,Senegal,-14.9678,14.9681,Unknown,2015-01-01,0
CLUBER,Thiel cenntre,PNUD,Senegal,-15.0775,15.0369,Unknown,2015-01-01,0
CLUBER,Wadane Djolof,PNUD,Senegal,-14.8750,14.6695,Unknown,2015-01-01,0
CLUBER,Tivaoune Peul,PNUD,Senegal,-17.2830,14.8076,Unknown,2015-01-01,0
CLUBER,Bantako,PNUD,Senegal,-12.2357,12.7707,Unknown,2015-01-01,0
CLUBER,Niéméniké,PNUD,Senegal,-12.5500,13.0167,Unknown,2015-01-01,0
CLUBER,Thionkh,PNUD,Senegal,-14.7441,14.6309,Unknown,2015-01-01,0
CLUBER,Mben-Mben,PNUD,Senegal,-14.4039,14.8178,Unknown,2015-01-01,0
CLUBER,Vélingara,PNUD,Senegal,-14.6794,15.0003,Unknown,2015-01-01,0
CLUBER,Médina Gounas,SENELEC,Senegal,-13.7521,13.1466,Operating,2006-01-01,0
CLUBER,Baout,ASER,Senegal,-16.5335,14.0626,Operating,2007-01-01,0
CLUBER,Diamiadio,ASER,Senegal,-16.5758,14.0656,Operating,2007-01-01,0
CLUBER,DIOGANE,ASER,Senegal,-16.6475,13.8706,Operating,2012-01-01,0
CLUBER,Diaoulé,SENELEC,Senegal,-16.2167,14.3667,Operating,2007-01-01,0
CLUBER,Ndiebel,SENELEC,Senegal,-16.1500,14.3500,Operating,2007-01-01,0
CLUBER,Babadi,Unkonwn,Senegal,-15.5000,12.8500,Operating,2012-01-01,34
CLUBER,Bani,Unkonwn,Senegal,-12.8731,13.8290,Operating,2012-01-01,31
CLUBER,Dandone,Unkonwn,Senegal,-15.8500,12.8667,Operating,2012-01-01,23
CLUBER,Francounda Diola (Bajicounda),Unkonwn,Senegal,-15.9160,12.7109,Operating,2012-01-01,24
CLUBER,MBoro/Mer (MBoro NDeunekat),Unkonwn,Senegal,-16.8997,15.1119,Unknown,2013-01-01,0
CLUBER,Niomoune,Sunna Design,Senegal,-16.6500,12.6333,Operating,2016-01-01,0
CLUBER,Bossinkang,ASER,Senegal,-16.5700,13.7300,Operating,2012-01-01,0
CLUBER,Djinack Barra,ASER,Senegal,-15.4922,13.6019,Operating,2012-01-01,0
CLUBER,FALIA,ASER,Senegal,-16.6813,13.9199,Operating,2012-01-01,0
CLUBER,MOUNDE,ASER,Senegal,-16.6500,13.9500,Operating,2012-01-01,0
CLUBER,THIALANE,ASER,Senegal,-16.6278,13.8887,Operating,2012-01-01,0
CLUBER,Dionewar-Niodor,Unkonwn,Senegal,-16.7170,13.8670,Operating,2008-01-01,0
CLUBER,Gababé,PNUD,Senegal,-13.5500,16.1167,Operating,2016-01-01,0
CLUBER,Ndellé,Unkonwn,Senegal,-16.2881,16.1678,Operating,2008-01-01,0
CLUBER,Oudalaye,PNUD,Senegal,-12.4348,14.1171,Operating,2016-01-01,0
CLUBER,Vélingara,SENELEC,Senegal,-14.1059,13.1441,Operating,2006-01-01,0
CLUBER,Ololosokwan,Rafiki Power,Tanzania,35.3149,1.8250,Operating,2015-01-01,0
CLUBER,Soitsambu,Rafiki Power,Tanzania,35.4167,-1.9000,Operating,2015-01-01,0
CLUBER,Chang'ombe,Rafiki Power,Tanzania,39.2600,-6.8400,Operating,2017-01-01,356
CLUBER,Dongo,Rafiki Power,Tanzania,39.7186,-7.9024,Operating,2017-01-01,0
CLUBER,Temeke,Rafiki Power,Tanzania,36.7235,-3.8432,Operating,2015-01-01,0
CLUBER,Makumira,Unkonwn,Tanzania,36.8270,-3.3748,Unknown,2011-01-01,0
CLUBER,Ngarenanyuki,Unkonwn,Tanzania,36.8362,-3.1551,Unknown,2011-01-01,0
CLUBER,Loliondo,TANESCO,Tanzania,35.6170,-2.0514,Operating,2012-01-01,0
CLUBER,Ngombeni,Unkonwn,Tanzania,39.6936,-7.8979,Operating,2014-01-01,0
CLUBER,Somanga / Kilwa,Unkonwn,Tanzania,39.2960,-8.3893,Operating,2008-01-01,0
CLUBER,Leganga / Chitego,Unkonwn,Tanzania,36.3690,-5.7138,Operating,2015-01-01,0
CLUBER,Lobilo / Lenjulu,Unkonwn,Tanzania,36.8180,-5.9961,Operating,2015-01-01,0
CLUBER,Ngutoto / Chitego,Unkonwn,Tanzania,36.3317,-5.5960,Operating,2015-01-01,0
CLUBER,Silale / Makawa,Unkonwn,Tanzania,36.5360,-5.7540,Operating,2015-01-01,0
CLUBER,Runzewe,Unkonwn,Tanzania,31.5250,-3.3387,Operating,2013-01-01,65
CLUBER,Uyovu,Unkonwn,Tanzania,31.5030,-3.3194,Operating,2014-01-01,25
CLUBER,Bomalang'ombe,Unkonwn,Tanzania,37.1370,-3.3360,Operating,2001-01-01,331
CLUBER,Maguta/Lung'ali (I&II),Unkonwn,Tanzania,36.1938,-7.6689,Unknown,2015-01-01,0
CLUBER,Mawengi,ACRA-CCS with the local NGO Njombe Development Office (NDO),Tanzania,34.4716,-9.8429,Operating,2014-01-01,0
CLUBER,Biharamulo,Unkonwn,Tanzania,31.3110,-2.6369,Operating,2013-01-01,0
CLUBER,Runazi,Unkonwn,Tanzania,31.3820,-2.8149,Operating,2014-01-01,69
CLUBER,Ngara,Unkonwn,Tanzania,30.6550,-2.5097,Operating,2013-01-01,0
CLUBER,Ilela,Unkonwn,Tanzania,32.1300,-6.7982,Operating,2015-01-01,0
CLUBER,Ilunde,Unkonwn,Tanzania,32.4840,-6.7420,Operating,2015-01-01,0
CLUBER,Nsenkwa,Unkonwn,Tanzania,32.0170,-6.7768,Operating,2015-01-01,0
CLUBER,Kasulu,Unkonwn,Tanzania,30.1070,-4.5748,Operating,2012-01-01,0
CLUBER,Kibondo,Unkonwn,Tanzania,30.7230,-3.5869,Operating,2012-01-01,0
CLUBER,Matadi,Unkonwn,Tanzania,37.1030,-3.2344,Operating,2013-01-01,35
CLUBER,Nyangao,Unkonwn,Tanzania,39.2914,-10.3333,Unknown,2010-01-01,0
CLUBER,Kijungu,Unkonwn,Tanzania,37.1820,-5.3968,Operating,2014-01-01,10
CLUBER,Yovi Phase I,Unkonwn,Tanzania,36.8041,-7.5682,Unknown,2015-01-01,0
CLUBER,Kongwa,Unkonwn,Tanzania,37.8490,-7.2607,Operating,2016-01-01,0
CLUBER,Ludewa,Unkonwn,Tanzania,34.6920,-10.1067,Operating,2012-01-01,0
CLUBER,Mavanga,Unkonwn,Tanzania,35.1048,-9.8678,Operating,2002-01-01,0
CLUBER,Kipengele,Unkonwn,Tanzania,34.4307,-9.3013,Operating,2012-01-01,0
CLUBER,Mahanje (East),Unkonwn,Tanzania,35.1960,-9.9560,Operating,2014-01-01,0
CLUBER,Mbangomao,Unkonwn,Tanzania,35.0740,-11.0210,Operating,2015-01-01,842
CLUBER,Mbinga,Unkonwn,Tanzania,34.9970,-10.9499,Operating,2011-01-01,0
CLUBER,Namtumbo,Unkonwn,Tanzania,36.1380,-10.4636,Operating,2011-01-01,0
CLUBER,Chipole Mission,Unkonwn,Tanzania,35.2010,-10.8630,Operating,2006-01-01,0
CLUBER,Chipole Mission,Unkonwn,Tanzania,35.2705,-10.8052,Operating,2016-01-01,7800
CLUBER,Chipole Mission,Unkonwn,Tanzania,35.2010,-10.8630,Operating,2014-01-01,0
CLUBER,Tunduru,Unkonwn,Tanzania,37.3350,-11.0422,Operating,2010-01-01,0
CLUBER,Lumeme,Unkonwn,Tanzania,34.9540,-11.1570,Operating,2014-01-01,0
CLUBER,LUNDOMATO MISSION,Unkonwn,Tanzania,34.8000,-10.8530,Operating,2014-01-01,0
CLUBER,Chambo,Unkonwn,Tanzania,32.6560,-4.2068,Operating,2013-01-01,68
CLUBER,Segese,Unkonwn,Tanzania,32.4210,-3.5335,Operating,2014-01-01,29
CLUBER,Ulowa No. 5,Unkonwn,Tanzania,32.1230,-4.2119,Operating,2013-01-01,85
CLUBER,Lyabukande,Unkonwn,Tanzania,32.9300,-3.5699,Operating,2014-01-01,36
CLUBER,Mwakitolyo,Unkonwn,Tanzania,32.7350,-3.3926,Operating,2014-01-01,38
CLUBER,Kona Nne,Unkonwn,Tanzania,31.7427,-5.0340,Operating,2014-01-01,14
CLUBER,Loya,Unkonwn,Tanzania,33.8470,-5.0409,Operating,2015-01-01,0
CLUBER,Lutende,Unkonwn,Tanzania,33.4860,-4.9506,Operating,2015-01-01,0
CLUBER,Tura,Unkonwn,Tanzania,33.8435,-5.4950,Operating,2015-01-01,0
CLUBER,Kinko,Unkonwn,Tanzania,38.3131,-4.6596,Operating,2006-01-01,100
CLUBER,Mlola Lwandai,Unkonwn,Tanzania,38.4280,-4.6289,Operating,2013-01-01,40
CLUBER,Mnazi,Unkonwn,Tanzania,38.3070,-4.4264,Operating,2013-01-01,12
CLUBER,Kimbo,Unkonwn,Tanzania,38.4820,-4.9482,Operating,2013-01-01,23
CLUBER,Mashewa,Unkonwn,Tanzania,38.6690,-5.1562,Operating,2013-01-01,12
CLUBER,Isenzanya,REDAVIA,Tanzania,32.7200,-8.8000,Operating,2017-01-01,0
CLUBER,Digo Digo,Rafiki Power,Tanzania,35.7100,-2.1300,Operating,2015-01-01,0
CLUBER,Biharamulo,TENESCO,Tanzania,31.3100,-2.6300,Operating,2004-01-01,0
CLUBER,"Bwisya, Ukara Island",JUMEME,Tanzania,33.0300,-1.8740,Operating,2016-01-01,0
CLUBER,Itaswi,Rafiki Power,Tanzania,36.0000,-4.5500,Operating,2016-01-01,0
CLUBER,Kalumbaleza Power Project,Unkonwn,Tanzania,31.5300,-7.6000,Operating,2015-01-01,0
CLUBER,Kasulu,TENESCO,Tanzania,30.1000,-4.5700,Operating,2010-01-01,0
CLUBER,Kigoma,NextGen Solawazi,Tanzania,30.5200,-4.6400,Operating,2013-01-01,0
CLUBER,Kigoma,TENESCO,Tanzania,29.6600,-4.8800,Operating,2010-01-01,0
CLUBER,Komolo,Rafiki Power,Tanzania,36.7175,-3.8343,Operating,2014-01-01,0
CLUBER,Kwa Mtoro,Rafiki Power,Tanzania,35.4300,-5.2300,Operating,2016-01-01,0
CLUBER,Liwale,TENESCO,Tanzania,37.9200,-9.8000,Operating,2012-01-01,0
CLUBER,Ludewa,TENESCO,Tanzania,34.6800,-9.8200,Operating,2008-01-01,0
CLUBER,Lwega Hydropower Project,Unkonwn,Tanzania,30.3600,-6.3100,Operating,2014-01-01,0
CLUBER,MAFIA ISLAND,TANESCO,Tanzania,39.7833,-7.8500,Operating,2014-01-01,0
CLUBER,Mafia Solar Project,Unkonwn,Tanzania,39.7500,-7.8600,Operating,2015-01-01,0
CLUBER,Makete / Lyamanji hydropower,KIBATCO Co. Ltd,Tanzania,34.0600,-9.2000,Operating,2014-01-01,0
CLUBER,Malambo,Rafiki Power,Tanzania,30.5800,-6.1500,Operating,2016-01-01,0
CLUBER,Mbinga,Andoya Hydro Electric Power Ltd (AHEPO),Tanzania,34.9800,-10.9400,Operating,2015-01-01,0
CLUBER,Mpanda Solar Project,Unkonwn,Tanzania,31.0700,-6.3400,Operating,2015-01-01,0
CLUBER,Nantumbo,TENESCO,Tanzania,36.1300,-10.4600,Operating,2012-01-01,0
CLUBER,"Ngombei, Mafia Island",TANESCO,Tanzania,39.7500,-7.8690,Operating,2014-01-01,0
CLUBER,Songea,St. Agnes Chipole,Tanzania,35.6400,-10.6400,Operating,2015-01-01,0
CLUBER,Sumbawanga,Nkwilo project,Tanzania,31.6100,-7.9400,Operating,2013-01-01,0
CLUBER,Sumbawanga,TENESCO,Tanzania,31.6100,-7.9400,Operating,2010-01-01,0
CLUBER,Sumbawanga Solar Project,Unkonwn,Tanzania,31.6100,-7.9400,Operating,2015-01-01,0
CLUBER,Uzia Hydro Power Projecft,Unkonwn,Tanzania,31.6500,-7.7500,Operating,2015-01-01,0
CLUBER,Assoukoko,Unkonwn,Togo,0.6590,8.0000,Operating,2017-01-01,500
CLUBER,Yegue,CEET,Togo,0.6500,8.1833,Operating,2016-01-01,0
CLUBER,FOLO BANDA,Unkonwn,Togo,0.7000,8.9333,Unknown,2018-01-01,0
CLUBER,KANDJO,Unkonwn,Togo,0.2585,9.5464,Unknown,2018-01-01,0
CLUBER,TAKA/TEMA,Unkonwn,Togo,0.5167,9.8167,Unknown,2018-01-01,0
CLUBER,TASSI,Unkonwn,Togo,0.6500,8.6833,Unknown,2018-01-01,0
CLUBER,ELEVAGNON,Unkonwn,Togo,1.3000,8.0000,Unknown,2018-01-01,0
CLUBER,KOUVON,Unkonwn,Togo,1.0100,9.0000,Unknown,2018-01-01,0
CLUBER,MONO,Unkonwn,Togo,1.2333,8.4500,Unknown,2018-01-01,0
CLUBER,Sokode,CEET,Togo,1.1333,8.9833,Operating,2016-01-01,0
CLUBER,Djarikpanga,CEET,Togo,0.5667,8.7667,Operating,2016-01-01,130
CLUBER,GBAO,Unkonwn,Togo,1.3833,9.4667,Unknown,2018-01-01,0
CLUBER,Bandjeli,CEET,Togo,0.6167,9.4500,Operating,2016-01-01,85
CLUBER,BOUNLARE,Unkonwn,Togo,0.7667,9.4000,Unknown,2018-01-01,0
CLUBER,Dimori,CEET,Togo,0.5896,9.2033,Operating,2016-01-01,108
CLUBER,Dimouri,CEET,Togo,0.5833,9.2025,Operating,2016-01-01,0
CLUBER,Kountoum,Unkonwn,Togo,0.5700,9.1200,Operating,2017-01-01,0
CLUBER,Mandouri,CEET,Togo,0.8167,10.8500,Operating,2016-01-01,194
CLUBER,TCHAPOSSI,Unkonwn,Togo,0.6212,9.0601,Unknown,2018-01-01,0
CLUBER,WALELE,Unkonwn,Togo,0.6500,9.1667,Unknown,2018-01-01,0
CLUBER,LAMA-DESSI 1,Unkonwn,Togo,1.1861,9.5511,Unknown,2018-01-01,0
CLUBER,DJABOKOU,Unkonwn,Togo,0.4514,9.9364,Unknown,2018-01-01,0
CLUBER,GARIMBOM,Unkonwn,Togo,0.7500,9.7333,Unknown,2018-01-01,0
CLUBER,KATCHAMBA CENTRE,Unkonwn,Togo,0.5258,9.8875,Unknown,2018-01-01,0
CLUBER,KPANKPANDE,Unkonwn,Togo,0.4000,9.8833,Unknown,2018-01-01,0
CLUBER,NAMAB,Unkonwn,Togo,0.6000,9.8167,Unknown,2018-01-01,0
CLUBER,NANDOUTA,Unkonwn,Togo,0.4054,9.6033,Unknown,2018-01-01,0
CLUBER,NAPIMBO,Unkonwn,Togo,0.6500,9.8167,Unknown,2018-01-01,0
CLUBER,POUTAMELE,Unkonwn,Togo,0.5500,9.5167,Unknown,2018-01-01,0
CLUBER,AGBASSA,Unkonwn,Togo,0.9236,9.7875,Unknown,2018-01-01,0
CLUBER,KORE,Unkonwn,Togo,1.1833,9.8833,Unknown,2018-01-01,0
CLUBER,TCHITCHIRA,Unkonwn,Togo,1.2879,10.0069,Unknown,2018-01-01,0
CLUBER,Kara,CEET,Togo,1.1833,9.5500,Operating,2016-01-01,0
CLUBER,DISSANI (BASSAMBA),Unkonwn,Togo,1.1167,10.0500,Unknown,2018-01-01,0
CLUBER,KOUNITI,Unkonwn,Togo,1.1332,10.0000,Unknown,2018-01-01,0
CLUBER,Barkoissi,CEET,Togo,0.3119,10.5478,Operating,2016-01-01,0
CLUBER,AGBESSIA,Unkonwn,Togo,0.9206,6.5702,Unknown,2018-01-01,0
CLUBER,AGBLEDO,Unkonwn,Togo,0.9667,6.5500,Unknown,2018-01-01,0
CLUBER,AGOVE,Unkonwn,Togo,0.9831,6.3331,Unknown,2018-01-01,0
CLUBER,ATTI-ATOVOU,Unkonwn,Togo,0.9000,6.4500,Unknown,2018-01-01,0
CLUBER,BAKA KOPE,Unkonwn,Togo,1.3539,6.1644,Unknown,2018-01-01,0
CLUBER,AVINATO,Unkonwn,Togo,1.2506,6.1381,Unknown,2018-01-01,0
CLUBER,DANGBESSITO,Unkonwn,Togo,1.1000,6.2500,Unknown,2018-01-01,0
CLUBER,MAMISSI,Unkonwn,Togo,1.6000,6.3667,Unknown,2018-01-01,0
CLUBER,Ando Kpomey,PNUD,Togo,0.8836,6.4316,Unknown,2015-01-01,500
CLUBER,Donomade,PNUD,Togo,1.5000,6.5833,Unknown,2015-01-01,870
CLUBER,AGBETIM,Unkonwn,Togo,1.0667,6.6000,Unknown,2018-01-01,0
CLUBER,AGBODJEKPO,Unkonwn,Togo,1.0221,6.8293,Unknown,2018-01-01,0
CLUBER,AGOKPALA,Unkonwn,Togo,0.9349,6.7612,Unknown,2018-01-01,0
CLUBER,AKE,Unkonwn,Togo,0.9667,6.7500,Unknown,2018-01-01,0
CLUBER,DAFOLENYAME et ses fermes,Unkonwn,Togo,1.0500,6.5167,Unknown,2018-01-01,0
CLUBER,GAME NYATIVE,Unkonwn,Togo,0.7833,6.6667,Unknown,2018-01-01,0
CLUBER,GAME-KODJE,Unkonwn,Togo,1.0209,6.7263,Unknown,2018-01-01,0
CLUBER,GAPE ALOYI,Unkonwn,Togo,1.1000,6.5997,Unknown,2018-01-01,0
CLUBER,TOKPO,Unkonwn,Togo,1.0341,6.8682,Unknown,2018-01-01,0
CLUBER,TSITO,Unkonwn,Togo,1.1667,6.7833,Unknown,2018-01-01,0
CLUBER,Kougnohou,CEET,Togo,1.1497,7.2167,Operating,2016-01-01,0
CLUBER,Bavou / Canton d'Ountivou,CEET,Togo,1.5600,7.3500,Operating,2017-01-01,176
CLUBER,Agbave,AT2ER,Togo,0.9391,6.9118,Unknown,2018-01-01,0
CLUBER,Agoe Akodessewa,AT2ER,Togo,1.2674,6.1645,Unknown,2018-01-01,0
CLUBER,Agokplame,AT2ER,Togo,0.8667,6.8333,Unknown,2018-01-01,0
CLUBER,Amavenou,AT2ER,Togo,0.8000,6.7000,Unknown,2018-01-01,0
CLUBER,Damade,AT2ER,Togo,0.8333,6.7000,Unknown,2018-01-01,0
CLUBER,Fokpo,AT2ER,Togo,0.8976,6.5272,Unknown,2018-01-01,0
CLUBER,Kologan,AT2ER,Togo,0.9167,6.8167,Unknown,2018-01-01,0
CLUBER,Kpovenou,AT2ER,Togo,0.8833,6.8000,Unknown,2018-01-01,0
CLUBER,Lakponou,AT2ER,Togo,1.2833,6.1667,Unknown,2018-01-01,0
CLUBER,Nyidove,AT2ER,Togo,0.7114,6.7607,Unknown,2018-01-01,0
CLUBER,DENOU,Unkonwn,Togo,0.6660,7.3181,Unknown,2018-01-01,0
CLUBER,KPEVE,Unkonwn,Togo,0.9833,6.9667,Unknown,2018-01-01,0
CLUBER,YIKPA - DJIGBE,Unkonwn,Togo,0.6121,7.1263,Unknown,2018-01-01,0
CLUBER,BODJE,Unkonwn,Togo,0.9047,7.0937,Unknown,2018-01-01,0
CLUBER,KEMERIDA 1,Unkonwn,Togo,1.3500,9.6667,Unknown,2018-01-01,0
CLUBER,KOKOLO COPE,Unkonwn,Togo,1.5500,8.2000,Unknown,2018-01-01,0
CLUBER,Kpimé,CEET,Togo,0.6472,7.0059,Operating,2016-01-01,0
CLUBER,TCHOKPO KOPE,Unkonwn,Togo,1.1650,6.2236,Unknown,2018-01-01,0
CLUBER,AGOTE,Unkonwn,Togo,0.8000,7.2500,Unknown,2018-01-01,0
CLUBER,Ahassome,CEET,Togo,1.5000,7.2333,Operating,2016-01-01,0
CLUBER,Djon,CEET,Togo,0.7833,7.7333,Operating,2016-01-01,0
CLUBER,Saligbe,CEET,Togo,1.6331,7.2167,Operating,2016-01-01,0
CLUBER,Tado,CEET,Togo,1.5831,7.1500,Operating,2016-01-01,0
CLUBER,Kpékplémé,CEET,Togo,1.6167,7.3331,Operating,2016-01-01,0
CLUBER,DJEREHOUYE,Unkonwn,Togo,1.1500,7.6167,Unknown,2018-01-01,0
CLUBER,BENALI,Unkonwn,Togo,0.7333,7.5833,Unknown,2018-01-01,0
CLUBER,DOUME ELAVAGNON,Unkonwn,Togo,1.6445,8.0187,Unknown,2018-01-01,0
CLUBER,EKETO,Unkonwn,Togo,0.8333,7.5000,Unknown,2018-01-01,0
CLUBER,GOBE EGBO,Unkonwn,Togo,0.8000,7.5167,Unknown,2018-01-01,0
CLUBER,KLABE AZAFI,Unkonwn,Togo,1.0333,7.5667,Unknown,2018-01-01,0
CLUBER,LOM-NAVA,Unkonwn,Togo,1.3500,7.4333,Unknown,2018-01-01,0
CLUBER,OTANDJOBO,Unkonwn,Togo,0.7000,7.5833,Unknown,2018-01-01,0
CLUBER,TODOME,Unkonwn,Togo,0.7000,7.3333,Unknown,2018-01-01,0
CLUBER,ZOMENOU,Unkonwn,Togo,0.6835,7.5057,Unknown,2018-01-01,0
CLUBER,ZONGO YEYE,Unkonwn,Togo,1.6000,7.8167,Unknown,2018-01-01,0
CLUBER,Takpapiéni / Nganbi,Unkonwn,Togo,0.8000,10.1800,Operating,2018-01-01,0
CLUBER,Fare,CEET,Togo,0.4000,10.1833,Operating,2016-01-01,0
CLUBER,Gando,CEET,Togo,0.7447,10.3325,Operating,2016-01-01,254
CLUBER,Mogou,CEET,Togo,0.6439,10.3839,Operating,2016-01-01,31
CLUBER,Nadjir,AT2ER,Togo,0.2640,10.5820,Unknown,2018-01-01,0
CLUBER,Nandiki,AT2ER,Togo,0.4667,10.1667,Unknown,2018-01-01,0
CLUBER,Takpamba,CEET,Togo,0.5653,9.9692,Operating,2016-01-01,0
CLUBER,Dalagou,AT2ER,Togo,0.2667,10.9667,Unknown,2018-01-01,0
CLUBER,Ganlore,AT2ER,Togo,0.3167,10.7500,Unknown,2018-01-01,0
CLUBER,Kpeguibongue,AT2ER,Togo,0.2343,10.9838,Unknown,2018-01-01,0
CLUBER,Tanninkaog,AT2ER,Togo,0.1910,10.9629,Unknown,2018-01-01,0
CLUBER,Timangue,AT2ER,Togo,0.1889,10.9830,Unknown,2018-01-01,0
CLUBER,Dapaong,CEET,Togo,0.2036,10.8678,Operating,2016-01-01,0
CLUBER,Sabiegou,CEET,Togo,0.6430,10.2451,Operating,2016-01-01,69
CLUBER,Kisiizi,Kisiizi Hospital Power Limited,Uganda,29.9625,-0.9957,Operating,2009-01-01,0
CLUBER,Kabunyata / Kamira,Unkonwn,Uganda,32.7100,1.0500,Operating,2013-01-01,125
CLUBER,Sinda Village,Musika Development Initiatives,Zambia,31.7600,-14.2100,Operating,2017-01-01,60
CLUBER,Mpanta Solar Mini Grid,REA Zambia,Zambia,29.8000,-11.4700,Operating,2013-01-01,446
CLUBER,Zengamina Hydro Project,North West Zambia Development Trust,Zambia,24.1900,-11.1200,Operating,2008-01-01,0
CLUBER,Nyafaru,Practical Action,Zimbabwe,35.9280,-18.1870,Operating,2005-01-01,0
CLUBER,Mashaba,SNV and Practical Action,Zimbabwe,29.0500,-21.7820,Operating,2016-01-01,0