geometry,Map,country,customers,date_commi,developer,latitude,longitude,site_name,source,status
POINT (16.694041666666664 -11.48404166666667),50,Angola,2000,2018-07-01,Unkonwn,-11.484,16.694,Andulo,CLUBER,Unknown
POINT (-4.199958333333342 11.76595833333333),40,Burkina Faso,0,2017-07-01,Unkonwn,11.766,-4.2,Bonvale,CLUBER,Unknown
POINT (-3.0769583333333514 10.806958333333341),40,Burkina Faso,0,2017-07-01,Unkonwn,10.807,-3.077,Bontioli,CLUBER,Unknown
POINT (-0.3039583333333269 11.25695833333333),50,Burkina Faso,0,2017-07-01,Unkonwn,11.257,-0.304,Bittou,CLUBER,Unknown
POINT (-2.3999583333333305 11.415958333333336),20,Burkina Faso,0,2016-07-01,TIN TUA ONG,11.416,-2.4,Gori,CLUBER,Unknown
POINT (-3.337958333333347 12.14295833333334),30,Burkina Faso,0,2017-07-01,Unkonwn,12.143,-3.338,Samendeni,CLUBER,Unknown
POINT (12.300041666666658 -1.3400416666666644),10,Burkina Faso,2300,2016-07-01,Sonabel,-1.34,12.3,Bilgo,CLUBER,Operating
POINT (-4.749958333333353 11.28295833333334),30,Burkina Faso,0,2017-07-01,Unkonwn,11.283,-4.75,Koutseni,CLUBER,Unknown
POINT (-2.7499583333333533 11.182958333333332),40,Burkina Faso,0,2017-07-01,Unkonwn,11.183,-2.75,Bon,CLUBER,Unknown
POINT (-1.16595833333335 11.115958333333339),40,Burkina Faso,0,2017-07-01,Unkonwn,11.116,-1.166,Badango,CLUBER,Unknown
POINT (-2.3329583333333517 11.582958333333337),20,Burkina Faso,0,2017-07-01,Unkonwn,11.583,-2.333,Gougourou,CLUBER,Unknown
POINT (-0.8229583333333323 12.61695833333333),60,Burkina Faso,0,2017-07-01,SPEEDTECH,12.617,-0.823,Ziga,CLUBER,Unknown
POINT (1.466041666666655 11.582958333333337),30,Burkina Faso,0,2017-07-01,Unkonwn,11.583,1.466,Arli,CLUBER,Unknown
POINT (0.7160416666666549 13.28295833333334),30,Burkina Faso,0,2017-07-01,Unkonwn,13.283,0.716,Kirgou,CLUBER,Unknown
POINT (11.450041666666664 -1.0523749999999978),10,Burkina Faso,5000,2017-07-01,Service international d'Appui au Développement,-1.0524,11.45,Guiba and Bindé,CLUBER,Operating
POINT (0.5800416666666592 10.25895833333334),30,Burkina Faso,0,2017-07-01,Unkonwn,10.259,0.58,Baoue,CLUBER,Unknown
POINT (12.805041666666654 6.917958333333331),10,Cameroon,0,2018-07-01,ONUDI,6.918,12.805,Adamaoua,CLUBER,Unknown
POINT (12.811041666666654 6.306958333333341),80,Cameroon,0,2018-07-01,Eneo Cameroon S A,6.307,12.811,Mbakaou,CLUBER,Unknown
POINT (11.706041666666664 4.62895833333333),30,Cameroon,0,2018-07-01,REFELA-Cam,4.629,11.706,Afanloum,CLUBER,Unknown
POINT (11.10004166666667 4.865958333333339),30,Cameroon,120,2017-07-01,Ministère de l?Eau et de l?Energie (Minee),4.866,11.1,Bayomen,CLUBER,Operating
POINT (11.385041666666666 4.952958333333342),10,Cameroon,0,2017-07-01,Unkonwn,4.953,11.385,Ngoro,CLUBER,Unknown
POINT (14.020041666666657 5.069958333333332),10,Cameroon,0,2015-07-01,Energy for Development Reasearch Project of the University of Southmpton,5.07,14.02,Bambouti / Ngoura,CLUBER,Operating
POINT (13.129041666666666 3.973958333333343),30,Cameroon,0,2018-07-01,REFELA-Cam,3.974,13.129,Angossas,CLUBER,Unknown
POINT (13.63004166666667 3.1609583333333404),30,Cameroon,0,2015-07-01,Agence d?électrification rurale (AER),3.161,13.63,Lomié,CLUBER,Unknown
POINT (12.823041666666654 3.7409583333333387),10,Cameroon,0,2015-07-01,Agence d?électrification rurale (AER),3.741,12.823,Messamena,CLUBER,Unknown
POINT (14.062041666666659 3.084958333333333),10,Cameroon,0,2015-07-01,Unkonwn,3.085,14.062,Messock,CLUBER,Unknown
POINT (9.891041666666666 5.016958333333335),30,Cameroon,300,2014-07-01,ADEID,5.017,9.891,Nkah,CLUBER,Operating
POINT (14.166041666666672 8.360958333333329),30,Cameroon,0,2016-07-01,CANOPY,8.361,14.166,Tcholliré,CLUBER,Operating
POINT (10.265041666666662 5.291958333333341),10,Cameroon,0,2017-07-01,Unkonwn,5.292,10.265,Batié,CLUBER,Unknown
POINT (14.062041666666659 3.084958333333333),10,Cameroon,0,2017-07-01,Unkonwn,3.085,14.062,Messok,CLUBER,Unknown
POINT (15.016041666666666 3.432958333333332),10,Cameroon,0,2018-07-01,REFELA-Cam,3.433,15.016,Mintom,CLUBER,Unknown
POINT (12.266041666666666 3.1159583333333387),30,Cameroon,0,2015-07-01,Huawei Technologies,3.116,12.266,Mvomeka?a,CLUBER,Operating
POINT (9.11604166666666 4.8329583333333375),10,Cameroon,0,2017-07-01,Unkonwn,4.833,9.116,Rumpi,CLUBER,Unknown
POINT (10.016041666666666 4.699958333333342),10,Cameroon,0,2014-07-01,Unkonwn,4.7,10.016,Bekem,CLUBER,Unknown
POINT (9.56604166666665 4.615958333333339),10,Cameroon,0,2014-07-01,Unkonwn,4.616,9.566,Chutes de Buba,CLUBER,Unknown
POINT (9.95504166666666 6.826958333333337),10,Cameroon,0,2014-07-01,Unkonwn,6.827,9.955,Edjong,CLUBER,Unknown
POINT (10.488041666666646 5.505958333333339),50,Cameroon,0,2014-07-01,Unkonwn,5.506,10.488,Famtchuet,CLUBER,Unknown
POINT (10.63604166666667 5.501958333333334),40,Cameroon,0,2014-07-01,Unkonwn,5.502,10.636,Foumbot,CLUBER,Unknown
POINT (10.639041666666657 6.080958333333342),50,Cameroon,0,2014-07-01,Unkonwn,6.081,10.639,Jakiri,CLUBER,Unknown
POINT (10.74704166666666 5.635958333333335),40,Cameroon,0,2014-07-01,Unkonwn,5.636,10.747,Koutaba,CLUBER,Unknown
POINT (9.367041666666665 5.819958333333332),10,Cameroon,0,2014-07-01,Unkonwn,5.82,9.367,Mak Mo,CLUBER,Unknown
POINT (10.978041666666655 5.428958333333341),10,Cameroon,0,2014-07-01,Unkonwn,5.429,10.978,Massagam,CLUBER,Unknown
POINT (10.283041666666662 4.749958333333339),10,Cameroon,0,2014-07-01,Unkonwn,4.75,10.283,Ndokban,CLUBER,Unknown
POINT (17.61204166666667 -4.951041666666669),30,DR Congo,4500,2017-07-01,UNDP / GEF / Government of RDC,-4.951,17.612,Mwanzi,CLUBER,Unknown
POINT (11.835041666666655 -4.630041666666671),30,DR Congo,2183,2017-07-01,UNDP / GEF / Government of RDC,-4.63,11.835,Loano,CLUBER,Unknown
POINT (19.300041666666658 -5.550041666666658),30,DR Congo,4330,2017-07-01,UNDP / GEF / Government of RDC,-5.55,19.3,Mukulu,CLUBER,Unknown
POINT (26.43504166666665 -3.386041666666671),10,DR Congo,4500,2017-07-01,UNDP / GEF / Government of RDC,-3.386,26.435,Munganzaa,CLUBER,Unknown
POINT (27.543041666666653 -11.654041666666657),50,DR Congo,0,2017-07-01,UNDP / GEF / Government of RDC,-11.654,27.543,Nianza,CLUBER,Unknown
POINT (14.19104166666665 -3.3900416666666615),10,DR Congo,2250,2017-07-01,UNDP / GEF / Government of RDC,-3.39,14.191,Kintadi,CLUBER,Unknown
POINT (21.758041666666657 -4.038041666666658),20,DR Congo,16875,2017-07-01,UNDP / GEF / Government of RDC,-4.038,21.758,Nsangi,CLUBER,Unknown
POINT (12.940041666666673 -4.9880416666666605),10,DR Congo,6919,2017-07-01,UNDP / GEF / Government of RDC,-4.988,12.94,Kikozo (riv. Lubuzi),CLUBER,Unknown
POINT (19.950041666666664 4.614958333333334),10,DR Congo,2227,2017-07-01,UNDP / GEF / Government of RDC,4.615,19.95,Wuwu,CLUBER,Unknown
POINT (26.790041666666667 -7.666041666666658),10,DR Congo,1318,2017-07-01,UNDP / GEF / Government of RDC,-7.666,26.79,Molua,CLUBER,Unknown
POINT (28.286041666666648 -1.5950416666666598),10,DR Congo,1130,2017-07-01,UNDP / GEF / Government of RDC,-1.595,28.286,Mole,CLUBER,Unknown
POINT (16.683041666666668 -5.8160416666666634),10,DR Congo,233333,2016-07-01,Unkonwn,-5.816,16.683,KABANGU (Bulungu cité),CLUBER,Unknown
POINT (18.565041666666673 -7.681041666666658),10,DR Congo,3792,2016-07-01,Unkonwn,-7.681,18.565,KULUNDJI,CLUBER,Unknown
POINT (29.10004166666667 -4.8770416666666705),10,DR Congo,582852,2016-07-01,Unkonwn,-4.877,29.1,YUNGU,CLUBER,Unknown
POINT (21.48704166666667 2.1699583333333408),10,DR Congo,681669,2016-07-01,Unkonwn,2.17,21.487,LISALA,CLUBER,Unknown
POINT (20.64804166666667 -1.648041666666657),10,DR Congo,161243,2016-07-01,Unkonwn,-1.648,20.648,Monkoto,CLUBER,Unknown
POINT (18.621041666666656 4.323958333333337),30,DR Congo,65349,2016-07-01,Unkonwn,4.324,18.621,Zongo,CLUBER,Unknown
POINT (20.980041666666665 -5.440041666666659),10,DR Congo,4002,2016-07-01,Unkonwn,-5.44,20.98,Djoko-Punda,CLUBER,Unknown
POINT (22.032041666666657 -6.413041666666658),30,DR Congo,110136,2016-07-01,Unkonwn,-6.413,22.032,Kazumba,CLUBER,Unknown
POINT (21.331041666666664 -4.831041666666664),10,DR Congo,67336,2016-07-01,Unkonwn,-4.831,21.331,MWEKA,CLUBER,Unknown
POINT (25.833041666666674 -5.500041666666661),20,DR Congo,0,2016-07-01,Unkonwn,-5.5,25.833,Chutes Wolf ( Kabinda),CLUBER,Unknown
POINT (18.365041666666656 -6.23104166666667),30,DR Congo,52103,2016-07-01,Unkonwn,-6.231,18.365,Kamiji,CLUBER,Unknown
POINT (23.283041666666662 -6.650041666666667),30,DR Congo,0,2016-07-01,Unkonwn,-6.65,23.283,Kamiji (Kamiji),CLUBER,Unknown
POINT (29.341041666666655 -0.5400416666666672),30,DR Congo,0,2016-07-01,Unkonwn,-0.54,29.341,Katanda (Katanda),CLUBER,Unknown
POINT (23.19504166666667 -6.0730416666666684),30,DR Congo,0,2016-07-01,Unkonwn,-6.073,23.195,Kole (Kole),CLUBER,Unknown
POINT (23.59604166666665 -3.524041666666662),50,DR Congo,0,2016-07-01,Unkonwn,-3.524,23.596,Lodja (Lodja),CLUBER,Unknown
POINT (24.420041666666663 -3.3970416666666665),50,DR Congo,0,2016-07-01,Unkonwn,-3.397,24.42,Lomami (Katako-kombe),CLUBER,Unknown
POINT (22.74104166666666 -5.719041666666669),10,DR Congo,0,2016-07-01,Unkonwn,-5.719,22.741,Ludimbi,CLUBER,Unknown
POINT (25.262041666666647 -5.24004166666667),10,DR Congo,202826,2016-07-01,Unkonwn,-5.24,25.262,Ludimbu,CLUBER,Unknown
POINT (18.246041666666656 -2.797041666666658),80,DR Congo,0,2016-07-01,Unkonwn,-2.797,18.246,Lukenie (Lodja),CLUBER,Unknown
POINT (23.333041666666674 -6.933041666666668),20,DR Congo,0,2016-07-01,Unkonwn,-6.933,23.333,LUNDIMBI,CLUBER,Unknown
POINT (23.883041666666657 -3.433041666666668),10,DR Congo,0,2016-07-01,Unkonwn,-3.433,23.883,Shele (Lodja),CLUBER,Unknown
POINT (23.415041666666667 -10.405041666666662),10,DR Congo,0,2016-07-01,Unkonwn,-10.405,23.415,Tshiala,CLUBER,Unknown
POINT (24.512041666666647 -4.12404166666667),20,DR Congo,22750,2016-07-01,Unkonwn,-4.124,24.512,Wembonyama 2,CLUBER,Unknown
POINT (20.206041666666664 -6.257041666666666),30,DR Congo,0,2016-07-01,Unkonwn,-6.257,20.206,Kihombo,CLUBER,Unknown
POINT (29.194041666666664 -5.947041666666664),10,DR Congo,0,2016-07-01,Unkonwn,-5.947,29.194,KIJIYA,CLUBER,Unknown
POINT (27.670041666666663 -11.463624999999993),50,DR Congo,1714,2016-07-01,Unkonwn,-11.4636,27.67,Kipushi,CLUBER,Unknown
POINT (25.00104166666665 -9.10004166666667),30,DR Congo,0,2016-07-01,Unkonwn,-9.1,25.001,Kiswishi,CLUBER,Unknown
POINT (27.281041666666653 -5.375041666666661),10,DR Congo,2129,2016-07-01,Unkonwn,-5.375,27.281,Kongolo,CLUBER,Unknown
POINT (25.48504166666666 -7.469041666666669),10,DR Congo,565,2016-07-01,Unkonwn,-7.469,25.485,Lububu,CLUBER,Unknown
POINT (28.763041666666652 -5.692041666666668),50,DR Congo,1207,2016-07-01,Unkonwn,-5.692,28.763,Lukombo,CLUBER,Unknown
POINT (25.083041666666674 -10.916041666666658),10,DR Congo,0,2016-07-01,Unkonwn,-10.916,25.083,Musokatanda,CLUBER,Unknown
POINT (30.83804166666667 2.8589583333333337),50,DR Congo,797458,2016-07-01,Unkonwn,2.859,30.838,Aru,CLUBER,Unknown
POINT (22.183041666666668 -6.5490416666666675),20,DR Congo,3390,2017-07-01,UNDP / GEF / Government of RDC,-6.549,22.183,Mutefu,CLUBER,Unknown
POINT (21.33004166666666 -5.500041666666661),10,DR Congo,2820,2017-07-01,UNDP / GEF / Government of RDC,-5.5,21.33,Kaluebo,CLUBER,Unknown
POINT (21.760041666666666 2.0219583333333304),10,DR Congo,0,2016-07-01,Unkonwn,2.022,21.76,Limboyo,CLUBER,Unknown
POINT (22.86604166666666 -6.500041666666661),20,DR Congo,0,2016-07-01,Unkonwn,-6.5,22.866,Tshidibai,CLUBER,Unknown
POINT (26.367041666666665 -7.208041666666659),10,DR Congo,840000,2017-07-01,UNDP / GEF / Government of RDC,-7.208,26.367,Lukelenge,CLUBER,Unknown
POINT (21.416041666666672 -5.3500416666666695),10,DR Congo,0,2016-07-01,Unkonwn,-5.35,21.416,CHUTE VON FRANCOIS / Luebo,CLUBER,Unknown
POINT (23.145041666666657 -6.466041666666669),10,DR Congo,0,2016-07-01,Unkonwn,-6.466,23.145,LUEKESHI,CLUBER,Unknown
POINT (23.450041666666664 -4.966041666666669),30,DR Congo,0,2016-07-01,Unkonwn,-4.966,23.45,LUSAMBO (DIBAYA),CLUBER,Unknown
POINT (22.466041666666655 -6.190041666666659),10,DR Congo,0,2016-07-01,Unkonwn,-6.19,22.466,MOYO,CLUBER,Unknown
POINT (21.37604166666665 -3.4880416666666605),10,DR Congo,0,2016-07-01,Unkonwn,-3.488,21.376,NDEKESE,CLUBER,Unknown
POINT (22.133041666666657 -5.750041666666661),10,DR Congo,0,2016-07-01,Unkonwn,-5.75,22.133,TSHIBASHI,CLUBER,Unknown
POINT (28.760875 -5.6910416666666634),20,DR Congo,1207,2017-07-01,UNDP / GEF / Government of RDC,-5.691,28.7609,Lukombe,CLUBER,Unknown
POINT (26.890208333333334 -5.674791666666664),30,DR Congo,2129,2017-07-01,UNDP / GEF / Government of RDC,-5.6748,26.8902,Ilunga,CLUBER,Unknown
POINT (25.650041666666652 -7.616708333333335),30,DR Congo,1687,2017-07-01,UNDP / GEF / Government of RDC,-7.6167,25.65,Lukushi,CLUBER,Unknown
POINT (16.206625000000003 -3.554208333333335),30,DR Congo,17371,2017-07-01,UNDP / GEF / Government of RDC,-3.5542,16.2066,Mbankana,CLUBER,Unknown
POINT (15.166791666666654 -4.5887916666666655),10,DR Congo,584,2016-07-01,Unkonwn,-4.5888,15.1668,KASANGULU,CLUBER,Unknown
POINT (14.437375000000003 -5.560374999999993),10,DR Congo,0,2016-07-01,Unkonwn,-5.5604,14.4374,KIMPESE,CLUBER,Unknown
POINT (14.033291666666656 -5.700041666666664),30,DR Congo,0,2016-07-01,Unkonwn,-5.7,14.0333,NSONA BANGU,CLUBER,Unknown
POINT (13.000041666666647 -4.983291666666659),10,DR Congo,1750,2016-07-01,Unkonwn,-4.9833,13.0,Kizu,CLUBER,Unknown
POINT (14.707791666666651 -5.593291666666659),10,DR Congo,2334,2016-07-01,Unkonwn,-5.5933,14.7078,NSONAMPANGU,CLUBER,Unknown
POINT (17.241124999999982 -4.546875),10,DR Congo,0,2016-07-01,Unkonwn,-4.5469,17.2411,Kanga,CLUBER,Unknown
POINT (21.758624999999995 -4.038291666666666),10,DR Congo,0,2016-07-01,Unkonwn,-4.0383,21.7586,MBWANDU,CLUBER,Unknown
POINT (17.785124999999994 -3.0347083333333273),30,DR Congo,0,2016-07-01,Unkonwn,-3.0347,17.7851,MUNDUNDU,CLUBER,Unknown
POINT (17.866874999999993 -4.653624999999991),10,DR Congo,0,2016-07-01,Unkonwn,-4.6536,17.8669,SIMBA,CLUBER,Unknown
POINT (18.426375000000007 -4.42220833333333),30,DR Congo,0,2016-07-01,Unkonwn,-4.4222,18.4264,VANGA,CLUBER,Unknown
POINT (27.000041666666647 -4.97604166666666),30,DR Congo,1700,2017-07-01,UNDP / GEF / Government of RDC,-4.976,27.0,Agogo,CLUBER,Unknown
POINT (27.32004166666667 -4.195041666666668),10,DR Congo,4500,2017-07-01,UNDP / GEF / Government of RDC,-4.195,27.32,Munumi,CLUBER,Unknown
POINT (28.50620833333332 -8.531791666666663),30,DR Congo,0,2016-07-01,Unkonwn,-8.5318,28.5062,Elia,CLUBER,Unknown
POINT (27.693375000000003 -4.689291666666662),50,DR Congo,0,2016-07-01,Unkonwn,-4.6893,27.6934,KABAMBARE,CLUBER,Unknown
POINT (26.10004166666667 -2.633291666666665),50,DR Congo,0,2016-07-01,Unkonwn,-2.6333,26.1,KAILO,CLUBER,Unknown
POINT (26.61670833333332 -2.566708333333324),10,DR Congo,0,2016-07-01,Unkonwn,-2.5667,26.6167,KALIMA,CLUBER,Unknown
POINT (26.550375000000003 -4.8855416666666684),20,DR Congo,0,2016-07-01,Unkonwn,-4.8855,26.5504,Kibamba,CLUBER,Unknown
POINT (26.333041666666674 -5.866041666666661),30,DR Congo,0,2016-07-01,Unkonwn,-5.866,26.333,LUAMA,CLUBER,Unknown
POINT (26.57204166666665 -0.7500416666666609),10,DR Congo,0,2016-07-01,Unkonwn,-0.75,26.572,LUBUTU,CLUBER,Unknown
POINT (26.250041666666647 -4.266041666666666),20,DR Congo,0,2016-07-01,Unkonwn,-4.266,26.25,Matala,CLUBER,Unknown
POINT (17.956041666666664 -3.72304166666666),50,DR Congo,0,2016-07-01,Unkonwn,-3.723,17.956,BAGATA,CLUBER,Unknown
POINT (29.35004166666667 0.5869583333333424),10,DR Congo,2250,2017-07-01,UNDP / GEF / Government of RDC,0.587,29.35,Oicha Mbau (riv. Mamundioma / site Chochota),CLUBER,Unknown
POINT (29.520041666666657 0.254208333333338),30,DR Congo,1130,2017-07-01,UNDP / GEF / Government of RDC,0.2542,29.52,Kitsumbiro (riv. Kivirikuku),CLUBER,Unknown
POINT (17.37404166666667 -3.3220416666666637),50,DR Congo,2133,2017-07-01,UNDP / GEF / Government of RDC,-3.322,17.374,Nkanga,CLUBER,Unknown
POINT (29.452041666666673 0.4989583333333343),50,DR Congo,408440,2016-07-01,Unkonwn,0.499,29.452,Beni,CLUBER,Unknown
POINT (27.832208333333313 -1.5657916666666694),10,DR Congo,30368,2016-07-01,Unkonwn,-1.5658,27.8322,Ibanga,CLUBER,Unknown
POINT (25.846291666666673 -1.4015416666666596),10,DR Congo,0,2016-07-01,Unkonwn,-1.4015,25.8463,LOWA,CLUBER,Unknown
POINT (29.24370833333333 -0.1550416666666621),50,DR Congo,43567,2016-07-01,Unkonwn,-0.155,29.2437,Lubero,CLUBER,Unknown
POINT (26.516708333333327 -4.7167083333333295),20,DR Congo,0,2016-07-01,Unkonwn,-4.7167,26.5167,LUME,CLUBER,Unknown
POINT (29.333041666666674 -0.5170416666666569),80,DR Congo,0,2016-07-01,Unkonwn,-0.517,29.333,TALYA SUD,CLUBER,Unknown
POINT (25.863875000000007 -1.677708333333328),10,DR Congo,0,2016-07-01,Unkonwn,-1.6777,25.8639,ULINDI,CLUBER,Unknown
POINT (25.24104166666666 0.6909583333333416),30,DR Congo,1356,2017-07-01,UNDP / GEF / Government of RDC,0.691,25.241,Bagbugbuzi (riv. Yame),CLUBER,Operating
POINT (26.966708333333315 -6.800041666666658),20,DR Congo,1462,2017-07-01,UNDP / GEF / Government of RDC,-6.8,26.9667,Bale,CLUBER,Unknown
POINT (15.141874999999999 -4.412125000000003),20,DR Congo,3600,2017-07-01,UNDP / GEF / Government of RDC,-4.4121,15.1419,Tsé,CLUBER,Unknown
POINT (26.650041666666652 -6.666708333333332),10,DR Congo,1280,2017-07-01,UNDP / GEF / Government of RDC,-6.6667,26.65,Lyenge,CLUBER,Unknown
POINT (28.797208333333316 -2.24004166666667),40,DR Congo,150,2017-07-01,UNDP / GEF / Government of RDC,-2.24,28.7972,Luiro/Formulac,CLUBER,Unknown
POINT (28.85004166666667 -2.366708333333335),30,DR Congo,300,2017-07-01,UNDP / GEF / Government of RDC,-2.3667,28.85,Mushuva,CLUBER,Unknown
POINT (26.046625000000006 -10.654375000000002),30,DR Congo,120,2017-07-01,UNDP / GEF / Government of RDC,-10.6544,26.0466,Sangano,CLUBER,Unknown
POINT (29.85454166666665 -7.38729166666667),30,DR Congo,8980,2017-07-01,UNDP / GEF / Government of RDC,-7.3873,29.8545,Lubumba,CLUBER,Unknown
POINT (29.055791666666664 -3.0081249999999926),30,DR Congo,29950,2016-07-01,Unkonwn,-3.0081,29.0558,Bufelro,CLUBER,Unknown
POINT (28.673624999999987 -2.7363749999999953),10,DR Congo,0,2016-07-01,Unkonwn,-2.7364,28.6736,Mususu,CLUBER,Unknown
POINT (29.816708333333338 -7.333291666666668),30,DR Congo,0,2016-07-01,Unkonwn,-7.3333,29.8167,MUTAMBALA,CLUBER,Unknown
POINT (25.863875000000007 -1.677708333333328),10,DR Congo,0,2016-07-01,Unkonwn,-1.6777,25.8639,ULINDI,CLUBER,Unknown
POINT (36.44004166666667 7.539958333333331),10,Ethiopia,207,2016-07-01,GIZ - Energising Development Ethiopia,7.54,36.44,Leku Migira,CLUBER,Operating
POINT (0.6300416666666706 5.818958333333342),10,Ghana,0,2016-07-01,GEDAP Project,5.819,0.63,Pediatorkope,CLUBER,Operating
POINT (0.065624999999983 7.590791666666675),80,Ghana,124,2016-07-01,GEDAP Project,7.5908,0.0656,Aglakope,CLUBER,Operating
POINT (36.43104166666666 -0.7172083333333319),50,Kenya,6000,2017-07-01,Thomson Reuters Foundation,-0.7172,36.431,Naivasha,CLUBER,Operating
POINT (34.86670833333332 3.6499583333333305),30,Kenya,0,2016-07-01,Unkonwn,3.65,34.8667,Kerio,CLUBER,Unknown
POINT (40.319124999999985 0.0926249999999982),20,Kenya,10064,2014-07-01,Unkonwn,0.0926,40.3191,Dadaab,CLUBER,Unknown
POINT (41.06670833333334 -1.1500416666666666),30,Kenya,759,2014-07-01,Unkonwn,-1.15,41.0667,Hulugho,CLUBER,Unknown
POINT (40.875624999999985 0.3556250000000034),30,Kenya,0,2016-07-01,Unkonwn,0.3556,40.8756,Liboi,CLUBER,Unknown
POINT (37.55004166666666 -2.2667083333333267),30,Kenya,0,2016-07-01,Southampton University / Rural Electrification Authority,-2.2667,37.55,Oloika,CLUBER,Operating
POINT (36.049208333333326 -2.0167083333333267),30,Kenya,0,2016-07-01,Southampton University / Rural Electrification Authority,-2.0167,36.0492,Shampole,CLUBER,Operating
POINT (34.28370833333332 4.405124999999998),30,Kenya,0,2016-07-01,Unkonwn,4.4051,34.2837,Nadapal,CLUBER,Unknown
POINT (41.105625 -2.066708333333324),30,Kenya,1681,2014-07-01,KPLC,-2.0667,41.1056,Faza,CLUBER,Operating
POINT (41.48879166666666 -1.7455416666666679),50,Kenya,762,2014-07-01,Unkonwn,-1.7455,41.4888,Kiunga,CLUBER,Unknown
POINT (37.65604166666665 -1.9552083333333314),30,Kenya,0,2016-07-01,Southampton University / Rural Electrification Authority,-1.9552,37.656,Kitonyoni,CLUBER,Operating
POINT (40.35004166666667 3.949958333333342),20,Kenya,3217,2014-07-01,Unkonwn,3.95,40.35,Banisa,CLUBER,Unknown
POINT (40.59404166666667 2.408958333333331),20,Kenya,0,2014-07-01,Unkonwn,2.409,40.594,Kotulo,CLUBER,Unknown
POINT (38.083041666666674 2.749958333333339),60,Kenya,0,2016-07-01,Unkonwn,2.75,38.083,Bubisa,CLUBER,Unknown
POINT (37.41604166666667 4.0829583333333375),30,Kenya,0,2016-07-01,GIZ/KfW,4.083,37.416,Dukana,CLUBER,Unknown
POINT (37.96504166666665 3.7139583333333377),30,Kenya,0,2016-07-01,Unkonwn,3.714,37.965,Furole,CLUBER,Unknown
POINT (37.80604166666666 1.5959583333333427),30,Kenya,1456,2014-07-01,KPLC,1.596,37.806,Laisamis,CLUBER,Operating
POINT (37.63004166666667 2.935958333333332),60,Kenya,1208,2014-07-01,Unkonwn,2.936,37.63,Maikona,CLUBER,Unknown
POINT (37.30704166666666 1.7289583333333383),30,Kenya,0,2016-07-01,GIZ/KfW,1.729,37.307,Ngurunit,CLUBER,Unknown
POINT (37.069041666666664 3.3199583333333322),60,Kenya,1883,2014-07-01,KPLC,3.32,37.069,North Horr,CLUBER,Operating
POINT (35.30004166666666 -1.3830416666666707),30,Kenya,0,2016-07-01,GIZ Energy,-1.383,35.3,Talek,CLUBER,Operating
POINT (36.57204166666665 3.6169583333333293),30,Kenya,0,2016-07-01,Unkonwn,3.617,36.572,Darade,CLUBER,Unknown
POINT (36.43804166666666 4.030958333333331),60,Kenya,0,2016-07-01,Unkonwn,4.031,36.438,Illeret,CLUBER,Unknown
POINT (36.66604166666667 1.1659583333333359),30,Kenya,0,2016-07-01,Unkonwn,1.166,36.666,Illaut,CLUBER,Unknown
POINT (34.856875 3.7167916666666656),10,Kenya,0,2014-07-01,Unkonwn,3.7168,34.8569,Kakuma,CLUBER,Unknown
POINT (35.85804166666665 3.526875000000004),60,Kenya,0,2016-07-01,GIZ/KfW,3.5269,35.858,Kalokol,CLUBER,Unknown
POINT (34.877041666666656 2.75695833333333),50,Kenya,482,2014-07-01,Unkonwn,2.757,34.877,Lokiriama,CLUBER,Unknown
POINT (35.746041666666656 4.2749583333333305),30,Kenya,7239,2014-07-01,KPLC,4.275,35.746,Lokitaung,CLUBER,Operating
POINT (36.02904166666667 1.9539583333333326),60,Kenya,8261,2014-07-01,KPLC,1.954,36.029,Lokori,CLUBER,Operating
POINT (36.71904166666667 2.75995833333333),30,Kenya,0,2016-07-01,Unkonwn,2.76,36.719,Loyangalani,CLUBER,Unknown
POINT (35.837041666666664 4.107958333333329),60,Kenya,0,2016-07-01,Unkonwn,4.108,35.837,Nachokui,CLUBER,Unknown
POINT (34.25004166666665 3.799958333333336),20,Kenya,0,2016-07-01,Unkonwn,3.8,34.25,Oropoi,CLUBER,Unknown
POINT (35.92804166666667 4.449958333333342),30,Kenya,0,2016-07-01,Unkonwn,4.45,35.928,Todonyang,CLUBER,Unknown
POINT (36.15304166666667 3.071958333333342),10,Kenya,0,2016-07-01,Unkonwn,3.072,36.153,Turkwel,CLUBER,Unknown
POINT (34.85604166666667 3.715958333333333),50,Kenya,0,2016-07-01,Unkonwn,3.716,34.856,Kakuma,CLUBER,Unknown
POINT (36.04004166666667 1.729958333333343),30,Kenya,0,2016-07-01,Unkonwn,1.73,36.04,Napeitom,CLUBER,Unknown
POINT (35.78304166666666 3.4279583333333363),60,Kenya,0,2016-07-01,Unkonwn,3.428,35.783,Kalokol,CLUBER,Unknown
POINT (35.47904166666666 3.9819583333333384),30,Kenya,0,2016-07-01,Unkonwn,3.982,35.479,Kaeris,CLUBER,Unknown
POINT (35.68204166666666 5.341958333333338),20,Kenya,0,2016-07-01,Unkonwn,5.342,35.682,Kibish,CLUBER,Unknown
POINT (35.06504166666667 4.722958333333338),30,Kenya,0,2016-07-01,Unkonwn,4.723,35.065,Kokuro,CLUBER,Unknown
POINT (35.728041666666655 5.0589583333333366),20,Kenya,0,2016-07-01,Unkonwn,5.059,35.728,Lokamarinyang,CLUBER,Unknown
POINT (35.87204166666666 4.242958333333334),20,Kenya,0,2016-07-01,Unkonwn,4.243,35.872,Lowarangak,CLUBER,Unknown
POINT (40.41204166666665 0.6149583333333339),20,Kenya,200,2016-07-01,Rural Electrification Authority,0.615,40.412,Biyamadhow,CLUBER,Unknown
POINT (36.86004166666666 1.3389583333333377),50,Kenya,0,2017-07-01,Unkonwn,1.339,36.86,Barsaloi,CLUBER,Unknown
POINT (36.970041666666646 -0.4210416666666674),40,Kenya,0,2015-07-01,KTDA power,-0.421,36.97,Chania River,CLUBER,Unknown
POINT (34.93304166666667 1.3329583333333375),20,Kenya,0,2019-07-01,Global Sustainable Limited,1.333,34.933,Chepkumia,CLUBER,Unknown
POINT (39.266041666666666 3.0829583333333375),20,Kenya,0,2017-07-01,Unkonwn,3.083,39.266,Dabel,CLUBER,Unknown
POINT (35.50804166666666 0.6719583333333361),50,Kenya,0,2019-07-01,Craftskill EA Ltd,0.672,35.508,Elegeyo Marakwet,CLUBER,Unknown
POINT (37.45904166666665 -0.5380416666666576),10,Kenya,0,2016-07-01,Kenya Tea Development Agency (KTDA),-0.538,37.459,Embu,CLUBER,Unknown
POINT (36.43404166666667 -1.395041666666657),30,Kenya,0,2017-07-01,Unkonwn,-1.395,36.434,Enkoireroi,CLUBER,Unknown
POINT (40.90004166666665 3.3829583333333346),20,Kenya,0,2016-07-01,Unkonwn,3.383,40.9,Gari,CLUBER,Unknown
POINT (34.72904166666666 -0.838041666666669),10,Kenya,0,2017-07-01,KTDA,-0.838,34.729,Gucha,CLUBER,Unknown
POINT (36.77904166666667 -0.5230416666666571),10,Kenya,0,2016-07-01,Gura shp,-0.523,36.779,Gura River,CLUBER,Unknown
POINT (37.67504166666666 -0.2040416666666687),20,Kenya,0,2019-07-01,Responsibility Africa,-0.204,37.675,IGOJI / MUTONGA RIVER,CLUBER,Unknown
POINT (37.766041666666666 -1.500041666666661),30,Kenya,0,2018-07-01,"KTDA Ltd,",-1.5,37.766,Iraru River,CLUBER,Unknown
POINT (37.03304166666666 -0.6830416666666679),20,Kenya,0,2019-07-01,Cube Energy Limited,-0.683,37.033,Iyego / River South Matioya,CLUBER,Unknown
POINT (39.95504166666666 -3.381041666666661),95,Kenya,0,2017-07-01,Unkonwn,-3.381,39.955,Kadaina islands,CLUBER,Unknown
POINT (35.47904166666666 3.9819583333333384),30,Kenya,0,2017-07-01,Unkonwn,3.982,35.479,Kaeris,CLUBER,Unknown
POINT (34.61604166666666 0.7999583333333362),10,Kenya,0,2018-07-01,A.M. Ventures LTD,0.8,34.616,Kapkateny falls,CLUBER,Unknown
POINT (37.65604166666665 0.0389583333333405),10,Kenya,0,2017-07-01,Mt Kenya Community Based Organisation,0.039,37.656,Kathita River,CLUBER,Unknown
POINT (35.192041666666654 -0.4690416666666692),80,Kenya,0,2015-07-01,Unilever Tea Kenya Ltd,-0.469,35.192,"Kerenge, Tagabi, Jamji,",CLUBER,Unknown
POINT (36.21904166666667 2.7609583333333347),60,Kenya,0,2017-07-01,Unkonwn,2.761,36.219,Kerio,CLUBER,Unknown
POINT (34.50704166666665 0.3709583333333342),30,Kenya,0,2017-07-01,Kibis Kinetic Energy Ltd,0.371,34.507,Kibisi falls / river Nzoia,CLUBER,Unknown
POINT (35.107041666666646 -0.7050416666666592),20,Kenya,0,2017-07-01,KTDA,-0.705,35.107,Kipsono,CLUBER,Unknown
POINT (37.470041666666646 -0.0260416666666572),10,Kenya,0,2017-07-01,Hydro Project Service Peters,-0.026,37.47,KIRIMA KIANTHI / KAZITA RIVER,CLUBER,Unknown
POINT (34.016041666666666 -0.1332916666666648),40,Kenya,0,2017-07-01,Unkonwn,-0.1333,34.016,Mageta,CLUBER,Unknown
POINT (35.02204166666667 -1.3860416666666708),30,Kenya,0,2018-07-01,"KTDA Ltd,",-1.386,35.022,Mara River,CLUBER,Unknown
POINT (37.722375 1.41920833333333),20,Kenya,0,2017-07-01,Unkonwn,1.4192,37.7224,Merile,CLUBER,Unknown
POINT (37.10004166666667 -0.6167083333333352),20,Kenya,0,2019-07-01,Cube Energy Limited,-0.6167,37.1,Mweru / River North Mathioya,CLUBER,Unknown
POINT (34.269375 0.238624999999999),20,Kenya,0,2017-07-01,Unkonwn,0.2386,34.2694,Namba Koloo,CLUBER,Unknown
POINT (37.906208333333325 -0.0236249999999956),20,Kenya,0,2017-07-01,Unkonwn,-0.0236,37.9062,Nanna,CLUBER,Unknown
POINT (34.19062499999998 -0.3538750000000022),20,Kenya,0,2017-07-01,Unkonwn,-0.3539,34.1906,Ngodhe,CLUBER,Unknown
POINT (37.40670833333331 -0.1690416666666579),20,Kenya,0,2020-07-01,Civicon Ltd,-0.169,37.4067,Nithi River,CLUBER,Unknown
POINT (37.38537499999998 -0.5513749999999931),20,Kenya,0,2018-07-01,"KTDA Ltd,",-0.5514,37.3854,Nyamindi River,CLUBER,Unknown
POINT (33.94904166666666 0.048458333333329),80,Kenya,0,2018-07-01,Global Sustainable Ltd,0.0485,33.949,Nzoia (Sidhikho),CLUBER,Unknown
POINT (37.00004166666665 1.8332916666666677),20,Kenya,0,2017-07-01,Unkonwn,1.8333,37.0,Olenarau,CLUBER,Unknown
POINT (36.937625 -1.6431249999999977),20,Kenya,0,2017-07-01,Unkonwn,-1.6431,36.9376,Olturoto,CLUBER,Unknown
POINT (36.813208333333336 1.1553750000000065),50,Kenya,0,2017-07-01,Unkonwn,1.1554,36.8132,Opiroi,CLUBER,Unknown
POINT (37.247375000000005 -0.7082083333333316),20,Kenya,0,2019-07-01,Cube Energy Limited,-0.7082,37.2474,river Mathioya,CLUBER,Unknown
POINT (37.97820833333333 -0.1570416666666574),50,Kenya,0,2017-07-01,Frontier Investment Management,-0.157,37.9782,River Nithi,CLUBER,Unknown
POINT (37.38537499999998 -0.5513749999999931),20,Kenya,0,2018-07-01,Greenlight Holdings,-0.5514,37.3854,River Nyamindi,CLUBER,Unknown
POINT (34.186375 -0.0077083333333263),20,Kenya,0,2016-07-01,Tindinyo Falls Resort,-0.0077,34.1864,River yala,CLUBER,Unknown
POINT (37.200041666666664 -0.6500416666666666),30,Kenya,0,2019-07-01,Kirengete Hydro Power Company/ Kirinyaga west hydro power company ltd,-0.65,37.2,Sagan River,CLUBER,Unknown
POINT (37.206124999999986 -0.6695416666666603),60,Kenya,0,2019-07-01,Lucid Power Generation Company,-0.6695,37.2061,Sagana River,CLUBER,Unknown
POINT (34.08779166666665 -0.4756249999999938),20,Kenya,0,2017-07-01,Unkonwn,-0.4756,34.0878,Takawiri,CLUBER,Unknown
POINT (34.63329166666665 0.7499583333333391),10,Kenya,0,2016-07-01,"GenPro, Shp",0.75,34.6333,Teremi Falls,CLUBER,Unknown
POINT (39.36462499999999 -4.65787499999999),50,Kenya,0,2017-07-01,Unkonwn,-4.6579,39.3646,Wasini/Mkwiro,CLUBER,Unknown
POINT (34.77962499999998 0.5992083333333369),40,Kenya,0,2018-07-01,Que Energy/ western hydro,0.5992,34.7796,Webuye Falls,CLUBER,Unknown
POINT (-10.30487500000001 6.515208333333334),10,Liberia,0,2020-07-01,Unkonwn,6.5152,-10.3049,Margibi,CLUBER,Unknown
POINT (-9.666708333333332 6.8999583333333305),20,Liberia,0,2019-07-01,NRICA,6.9,-9.6667,Bong,CLUBER,Unknown
POINT (-9.36729166666666 6.829458333333335),10,Liberia,0,2016-07-01,Unkonwn,6.8295,-9.3673,Bong,CLUBER,Operating
POINT (-9.723291666666682 8.201125000000005),10,Liberia,205,2017-07-01,NRICA,8.2011,-9.7233,Lofa,CLUBER,Operating
POINT (-9.923291666666671 8.191125),10,Liberia,0,2017-07-01,PLAN & VOSIEDA,8.1911,-9.9233,Lofa,CLUBER,Operating
POINT (-9.62329166666666 8.161124999999998),30,Liberia,0,2017-07-01,PLAN & VOSIEDA,8.1611,-9.6233,Lofa,CLUBER,Operating
POINT (-9.723291666666682 8.171125000000004),30,Liberia,0,2017-07-01,PLAN & VOSIEDA,8.1711,-9.7233,Lofa,CLUBER,Operating
POINT (-9.723291666666682 8.191125),10,Liberia,0,2017-07-01,PLAN & VOSIEDA,8.1911,-9.7233,Lofa,CLUBER,Operating
POINT (-9.723291666666682 8.181125000000009),10,Liberia,50005,2019-07-01,RREA,8.1811,-9.7233,Lofa,CLUBER,Unknown
POINT (-9.723291666666682 8.221125),10,Liberia,0,2017-07-01,PLAN & VOSIEDA,8.2211,-9.7233,Lofa,CLUBER,Operating
POINT (-8.660124999999994 6.84279166666667),10,Liberia,0,2016-07-01,NRICA,6.8428,-8.6601,Nimba,CLUBER,Operating
POINT (45.69004166666667 -18.980041666666665),30,Madagascar,0,2017-07-01,Henri Fraise et Fils,-18.98,45.69,Belobaka,CLUBER,Operating
POINT (46.11004166666666 -19.11004166666666),30,Madagascar,2930,2017-07-01,CASIELEC,-19.11,46.11,Mandalobe,CLUBER,Unknown
POINT (46.92004166666666 -19.07004166666667),30,Madagascar,0,2015-07-01,3ERAE,-19.07,46.92,Antoby est,CLUBER,Operating
POINT (47.37004166666665 -20.230041666666665),40,Madagascar,0,2014-07-01,HIER,-20.23,47.37,Fandriana,CLUBER,Operating
POINT (47.16004166666667 -20.33004166666666),30,Madagascar,0,2015-07-01,HIER,-20.33,47.16,Soavina - Ilaka centre,CLUBER,Operating
POINT (47.10004166666667 -20.96004166666667),40,Madagascar,0,2017-07-01,HIER,-20.96,47.1,Sahatona,CLUBER,Unknown
POINT (47.510041666666666 -21.550041666666658),20,Madagascar,0,2016-07-01,SM3E,-21.55,47.51,Tolongoina,CLUBER,Operating
POINT (48.75004166666665 -14.550041666666658),40,Madagascar,0,2017-07-01,Unkonwn,-14.55,48.75,Bealalana,CLUBER,Unknown
POINT (45.56004166666665 -25.130041666666656),20,Madagascar,0,2016-07-01,Association Angovo Soan'Androy,-25.13,45.56,Amboanaivo,CLUBER,Operating
POINT (46.230041666666665 -25.050041666666658),30,Madagascar,0,2016-07-01,Association Fihamy,-25.05,46.23,Beanantara,CLUBER,Operating
POINT (46.200041666666664 -25.160041666666658),40,Madagascar,0,2016-07-01,Association TELORAE TEA FAHAZAVAGNE,-25.16,46.2,Maroalimainty,CLUBER,Operating
POINT (45.740041666666656 -25.310041666666663),20,Madagascar,0,2016-07-01,Association Angovo Soan'Androy,-25.31,45.74,Marovato,CLUBER,Operating
POINT (46.13004166666667 -24.810041666666663),20,Madagascar,0,2015-07-01,Entreprise TOKY Construction,-24.81,46.13,Ifotaka,CLUBER,Operating
POINT (46.460041666666655 -25.130041666666656),30,Madagascar,0,2016-07-01,Entreprise TOKY Construction,-25.13,46.46,Tanandava,CLUBER,Operating
POINT (47.08004166666666 -24.83004166666666),20,Madagascar,0,2015-07-01,Entreprise TOKY Construction,-24.83,47.08,Mahatalaky,CLUBER,Operating
POINT (45.04004166666667 -20.410041666666658),40,Madagascar,0,2015-07-01,HIER,-20.41,45.04,Ankilizato,CLUBER,Operating
POINT (1.2100416666666547 16.27995833333334),60,Mali,0,2017-07-01,Unkonwn,16.28,1.21,IhanakataneII / Commune de Talataye,CLUBER,Unknown
POINT (0.4600416666666547 15.729958333333329),80,Mali,0,2017-07-01,Unkonwn,15.73,0.46,Tabango / Commune de Bara,CLUBER,Unknown
POINT (0.9760416666666742 17.024708333333336),60,Mali,0,2017-07-01,NL,17.0247,0.976,Ikarbaganene II / Commune de Tilemsi,CLUBER,Unknown
POINT (2.3900416666666615 15.909958333333336),60,Mali,0,2018-07-01,ETM,15.91,2.39,Menaka,CLUBER,Unknown
POINT (-10.319958333333346 14.449958333333342),30,Mali,0,2015-07-01,KAMA,14.45,-10.32,Guindinta / Commune de Diakon,CLUBER,Operating
POINT (-10.229958333333343 14.379958333333335),20,Mali,0,2017-07-01,KAMA,14.38,-10.23,Loumbama / Commune de Diakon,CLUBER,Unknown
POINT (-10.189958333333351 14.469958333333338),30,Mali,0,2017-07-01,KAMA,14.47,-10.19,Trentoumou / Commune de Diakon,CLUBER,Unknown
POINT (-7.749958333333353 13.579958333333337),40,Mali,0,2017-07-01,sans opérateur,13.58,-7.75,Farabougou / Commune de camara,CLUBER,Unknown
POINT (-11.789958333333345 14.579958333333337),20,Mali,0,2017-07-01,KURUMBA,14.58,-11.79,Ambidédikoré / Commune de Kaffo,CLUBER,Unknown
POINT (-11.579958333333337 14.969958333333338),40,Mali,0,2017-07-01,GIE KAKERIFO,14.97,-11.58,Aourou / Commune de Djelebou,CLUBER,Unknown
POINT (-11.509958333333344 14.479958333333329),20,Mali,0,2017-07-01,sans opérateur,14.48,-11.51,Bongourou / Commune de Liberte Dembaya,CLUBER,Unknown
POINT (-11.969958333333352 14.64995833333333),40,Mali,0,2017-07-01,KURUMBA,14.65,-11.97,Gakoura / Commune de Kafo,CLUBER,Unknown
POINT (-11.959958333333333 14.77995833333334),30,Mali,0,2017-07-01,NL,14.78,-11.96,Sansangué / Commune de Guidimakan Kéry Kafo,CLUBER,Unknown
POINT (-11.109958333333338 14.799958333333336),30,Mali,0,2017-07-01,sans opérateur,14.8,-11.11,Troun / Commune de Sero Diamanou,CLUBER,Unknown
POINT (-11.269958333333335 12.25995833333333),20,Mali,0,2017-07-01,NL,12.26,-11.27,Falea / Commune de Falea,CLUBER,Unknown
POINT (-9.41995833333334 13.00995833333333),40,Mali,0,2017-07-01,sans opérateur,13.01,-9.42,Dialaya / Commune de Bendougouba,CLUBER,Unknown
POINT (-9.879958333333349 15.129958333333335),30,Mali,0,2017-07-01,Unkonwn,15.13,-9.88,Gavinane / Commune de Gavinane,CLUBER,Unknown
POINT (-9.479958333333343 15.41995833333334),30,Mali,0,2017-07-01,NL,15.42,-9.48,Kouroukere / Commune de Yerere,CLUBER,Unknown
POINT (-10.809958333333327 14.319958333333332),40,Mali,0,2014-07-01,MOHACOM,14.32,-10.81,Saourane,CLUBER,Operating
POINT (-10.799958333333336 14.629958333333335),30,Mali,0,2017-07-01,SSD Kuraye Kurumba,14.63,-10.8,Dialaka / Commune de Tringa,CLUBER,Unknown
POINT (-10.529958333333326 15.199958333333342),40,Mali,0,2017-07-01,SSD Kuraye Kurumba,15.2,-10.53,Kodié / Commune de Guidime,CLUBER,Unknown
POINT (-10.65995833333335 15.109958333333338),20,Mali,0,2017-07-01,SSD Kuraye Kurumba,15.11,-10.66,Sambaga / Commune de Diafounou Gory,CLUBER,Unknown
POINT (-10.699958333333342 15.109958333333338),30,Mali,0,2017-07-01,SSD Kuraye Kurumba,15.11,-10.7,Sambakanou / Commune de Gory,CLUBER,Unknown
POINT (-11.15995833333335 13.059958333333341),30,Mali,0,2018-07-01,GIE KALAOU-MOULINE,13.06,-11.16,Batama,CLUBER,Unknown
POINT (-9.845875000000007 13.014208333333329),30,Mali,0,2018-07-01,KAGNELA,13.0142,-9.8459,Diankounté,CLUBER,Unknown
POINT (-11.999958333333325 14.66995833333334),30,Mali,0,2018-07-01,ARLF,14.67,-12.0,Digokory,CLUBER,Unknown
POINT (-10.289958333333345 14.469958333333338),30,Mali,0,2015-07-01,KAMA,14.47,-10.29,Djédigui Kassé,CLUBER,Operating
POINT (-9.449958333333342 13.199958333333342),40,Mali,0,2018-07-01,SOGEP,13.2,-9.45,Djidjan,CLUBER,Unknown
POINT (-8.559958333333327 14.539958333333331),40,Mali,0,2018-07-01,BECI,14.54,-8.56,Djoumara,CLUBER,Unknown
POINT (-10.929958333333332 15.00995833333333),30,Mali,0,2018-07-01,SSD KK,15.01,-10.93,Dogofiry,CLUBER,Unknown
POINT (-10.309958333333327 14.449958333333342),30,Mali,0,2015-07-01,KAMA,14.45,-10.31,Doualé,CLUBER,Operating
POINT (-11.679958333333332 14.589958333333342),30,Mali,0,2018-07-01,SSD KK,14.59,-11.68,Gagny,CLUBER,Unknown
POINT (-11.969958333333352 14.64995833333333),40,Mali,0,2018-07-01,SSD KK,14.65,-11.97,Gakoura,CLUBER,Unknown
POINT (-10.749958333333325 15.109958333333338),10,Mali,0,2018-07-01,SSD KK,15.11,-10.75,Gory,CLUBER,Unknown
POINT (-11.299958333333336 14.549958333333336),40,Mali,0,2018-07-01,BLUE SKY,14.55,-11.3,Gouméra,CLUBER,Unknown
POINT (-3.439958333333351 15.519958333333335),20,Mali,0,2018-07-01,ARLF,15.52,-3.44,Kabou,CLUBER,Unknown
POINT (-5.63995833333334 13.479958333333329),30,Mali,0,2018-07-01,GIE DJEYASSO,13.48,-5.64,Kakoulou,CLUBER,Unknown
POINT (-10.979958333333343 14.52995833333334),40,Mali,0,2018-07-01,GIE KALAOU-MOULINE,14.53,-10.98,Kalaou,CLUBER,Unknown
POINT (-11.039958333333345 14.75995833333333),30,Mali,0,2015-07-01,KAMA,14.76,-11.04,Kandia,CLUBER,Operating
POINT (-10.459958333333333 14.499958333333339),50,Mali,0,2018-07-01,KAMA,14.5,-10.46,Kembé,CLUBER,Unknown
POINT (-10.219958333333352 14.41995833333334),40,Mali,0,2018-07-01,KAMA,14.42,-10.22,Kembélé,CLUBER,Unknown
POINT (-10.86995833333333 15.069958333333332),20,Mali,0,2018-07-01,SSD KK,15.07,-10.87,Kersignagné Diafounou,CLUBER,Unknown
POINT (-10.979958333333343 14.989958333333334),30,Mali,0,2018-07-01,SSD KK,14.99,-10.98,Kersignagné Kaniaga,CLUBER,Unknown
POINT (-10.229958333333343 15.409958333333336),50,Mali,0,2018-07-01,SSD KK,15.41,-10.23,Kirané,CLUBER,Unknown
POINT (-9.939958333333351 12.879958333333335),30,Mali,0,2018-07-01,SABOU,12.88,-9.94,Kokofata,CLUBER,Unknown
POINT (-10.359958333333338 14.219958333333338),30,Mali,0,2018-07-01,KAMA,14.22,-10.36,Kouri,CLUBER,Unknown
POINT (-10.549958333333336 14.499958333333339),40,Mali,0,2015-07-01,KAMA,14.5,-10.55,Kourounidifing,CLUBER,Operating
POINT (-10.39995833333333 12.599958333333333),40,Mali,0,2018-07-01,SOGEP,12.6,-10.4,Kourounikoto,CLUBER,Unknown
POINT (-9.559958333333327 14.309958333333341),40,Mali,0,2018-07-01,ABIS DISTRIBUTION,14.31,-9.56,Lambidou,CLUBER,Unknown
POINT (-9.299958333333336 14.349958333333333),40,Mali,0,2018-07-01,KAMA,14.35,-9.3,Madiga Sacko,CLUBER,Unknown
POINT (-8.859958333333338 13.39995833333333),50,Mali,0,2015-07-01,KAMA,13.4,-8.86,Madina,CLUBER,Operating
POINT (-11.019958333333335 14.77995833333334),50,Mali,0,2018-07-01,BLUE SKY,14.78,-11.02,Mélo,CLUBER,Unknown
POINT (-9.799958333333336 12.579958333333337),20,Mali,0,2018-07-01,EGEC,12.58,-9.8,Sagabary,CLUBER,Unknown
POINT (-10.779958333333326 14.089958333333342),40,Mali,0,2018-07-01,MOHA-COM,14.09,-10.78,Sélinkégni,CLUBER,Unknown
POINT (-11.059958333333327 14.799958333333336),30,Mali,0,2018-07-01,BLUE SKY,14.8,-11.06,Séro,CLUBER,Unknown
POINT (-11.979958333333343 14.659958333333336),50,Mali,0,2018-07-01,ARLF,14.66,-11.98,Soboukou,CLUBER,Unknown
POINT (-9.219958333333352 15.289958333333331),40,Mali,0,2018-07-01,ESE2,15.29,-9.22,Tambaga,CLUBER,Unknown
POINT (-10.759958333333344 14.25995833333333),40,Mali,0,2014-07-01,MOHACOM,14.26,-10.76,Tigana,CLUBER,Operating
POINT (-9.879958333333349 13.439958333333337),40,Mali,0,2018-07-01,Unkonwn,13.44,-9.88,Toukoto,CLUBER,Unknown
POINT (-9.229958333333343 15.25995833333333),30,Mali,0,2018-07-01,BMB,15.26,-9.23,Troungoumbé,CLUBER,Unknown
POINT (-10.719958333333352 15.129958333333335),20,Mali,0,2018-07-01,SSD KK,15.13,-10.72,Yaguiné-Sambakanou,CLUBER,Unknown
POINT (2.34004166666665 18.829958333333337),60,Mali,0,2017-07-01,Comité local,18.83,2.34,Essouk / Commune de Essouk,CLUBER,Unknown
POINT (0.8500416666666695 19.459958333333333),30,Mali,0,2017-07-01,NL,19.46,0.85,Adjelhock / Commune de Tessalit,CLUBER,Unknown
POINT (-7.349958333333348 13.569958333333332),40,Mali,0,2017-07-01,Unkonwn,13.57,-7.35,Kiban / Commune de Kiban,CLUBER,Unknown
POINT (-6.3999583333333305 12.469958333333338),40,Mali,0,2017-07-01,NL,12.47,-6.4,Béléko Soba / Commune de Diedougou,CLUBER,Unknown
POINT (-8.38995833333334 11.979958333333329),40,Mali,0,2017-07-01,NL,11.98,-8.39,Déguéla / Commune de Minidian,CLUBER,Unknown
POINT (-7.799958333333336 12.129958333333335),40,Mali,0,2017-07-01,SAFEELEC,12.13,-7.8,Kafara / Commune de Ouellessobougou,CLUBER,Unknown
POINT (-8.329958333333337 12.099958333333333),40,Mali,0,2017-07-01,NL,12.1,-8.33,Kéniéroba / Commune de Bancoumana,CLUBER,Unknown
POINT (-7.3599583333333385 12.309958333333341),20,Mali,0,2017-07-01,ACCESS,12.31,-7.36,N'Tjiba,CLUBER,Operating
POINT (-6.499958333333353 11.25995833333333),20,Mali,0,2017-07-01,NL,11.26,-6.5,Néguéla / Commune de Bossofala,CLUBER,Unknown
POINT (-7.769958333333335 12.079958333333337),20,Mali,0,2017-07-01,SAFEELEC,12.08,-7.77,Sougoula / Commune de Ouellessobougou,CLUBER,Unknown
POINT (-7.5699583333333464 12.299958333333336),50,Mali,0,2017-07-01,NL,12.3,-7.57,Tiélé / Commune de Tiele,CLUBER,Unknown
POINT (-8.029958333333326 12.959958333333333),30,Mali,0,2017-07-01,NL,12.96,-8.03,Yelekebougou / Commune de Yelekebougou,CLUBER,Unknown
POINT (-7.919958333333341 13.189958333333337),30,Mali,0,2017-07-01,NL,13.19,-7.92,Ouolodo / Commune de Oulodo,CLUBER,Unknown
POINT (-7.979958333333343 13.36995833333333),30,Mali,0,2017-07-01,NL,13.37,-7.98,Tioribougou / Commune de Tioribougou,CLUBER,Unknown
POINT (-7.979958333333343 13.36995833333333),30,Mali,0,2017-07-01,NL,13.37,-7.98,Tioribougou / Commune de Tioribougou,CLUBER,Unknown
POINT (-7.6099583333333385 13.019958333333335),50,Mali,0,2017-07-01,NL,13.02,-7.61,Doumba / Commune de Doumba,CLUBER,Unknown
POINT (-7.559958333333327 13.27995833333334),40,Mali,0,2017-07-01,NL,13.28,-7.56,Sirakorola-Ouest / Commune de Sirakorola,CLUBER,Unknown
POINT (-8.579958333333337 15.329958333333337),30,Mali,0,2017-07-01,Unkonwn,15.33,-8.58,Balle / Commune de Dogofry,CLUBER,Unknown
POINT (-7.65995833333335 14.989958333333334),30,Mali,0,2017-07-01,Unkonwn,14.99,-7.66,Dilly / Commune de Dilly,CLUBER,Unknown
POINT (-6.689958333333351 14.63995833333334),40,Mali,0,2017-07-01,NL,14.64,-6.69,Guire / Commune de Guire,CLUBER,Unknown
POINT (-8.259958333333344 12.199958333333342),40,Mali,0,2015-07-01,ACCESS sarl,12.2,-8.26,Bancoumana,CLUBER,Operating
POINT (-6.799958333333336 10.859958333333338),40,Mali,0,2018-07-01,SAFELEC,10.86,-6.8,Digan,CLUBER,Unknown
POINT (-8.449958333333342 11.88995833333334),30,Mali,0,2018-07-01,YIRIIMEX,11.89,-8.45,Kéla,CLUBER,Unknown
POINT (-10.079958333333337 12.579958333333337),10,Mali,0,2018-07-01,KNEM,12.58,-10.08,Korokoto,CLUBER,Unknown
POINT (-8.779958333333326 11.949958333333342),50,Mali,0,2015-07-01,SPE,11.95,-8.78,Kourémalé,CLUBER,Operating
POINT (-6.599958333333348 10.829958333333337),40,Mali,0,2018-07-01,SAFEELEC,10.83,-6.6,Sanankoro Djitoumou,CLUBER,Unknown
POINT (-7.959958333333333 11.88995833333334),50,Mali,0,2018-07-01,SAFEELEC,11.89,-7.96,Tinkélé,CLUBER,Unknown
POINT (-4.469958333333352 13.679958333333332),50,Mali,0,2017-07-01,NL,13.68,-4.47,Konio / Commune de Dandougou- Fakala,CLUBER,Unknown
POINT (-4.489958333333334 14.219958333333338),90,Mali,0,2017-07-01,NL,14.22,-4.49,Kouakourou / Commune de Kewa,CLUBER,Unknown
POINT (-4.38995833333334 13.789958333333331),30,Mali,0,2017-07-01,NL,13.79,-4.39,Madiama / Commune de Madiama,CLUBER,Unknown
POINT (-4.709958333333333 13.86995833333333),90,Mali,0,2017-07-01,Unkonwn,13.87,-4.71,Soha / Commune de Nema-badenyakafo,CLUBER,Unknown
POINT (-4.059958333333327 14.27995833333334),30,Mali,0,2017-07-01,NL,14.28,-4.06,Somadougou / Commune de Sio,CLUBER,Unknown
POINT (-3.479958333333343 15.129958333333335),40,Mali,0,2017-07-01,NL,15.13,-3.48,Boré / Commune de Dangol-Boré,CLUBER,Unknown
POINT (-1.699958333333342 15.27995833333334),60,Mali,0,2017-07-01,Unkonwn,15.28,-1.7,Hombori / Commune de Hombori,CLUBER,Unknown
POINT (-4.089958333333328 14.329958333333337),30,Mali,0,2017-07-01,sans opérateur,14.33,-4.09,Hamdallaye / Commune de Sio,CLUBER,Unknown
POINT (-4.079958333333337 14.409958333333336),30,Mali,0,2017-07-01,NL,14.41,-4.08,Soufourlaye / Commune de Sio,CLUBER,Unknown
POINT (-5.219958333333352 14.879958333333335),30,Mali,0,2017-07-01,NL,14.88,-5.22,Dioura / Commune de Kareri,CLUBER,Unknown
POINT (-4.589958333333328 14.909958333333336),40,Mali,0,2017-07-01,NL,14.91,-4.59,Toguere Coumbé / Commune de Toguere Coumbé,CLUBER,Unknown
POINT (-4.979958333333343 14.13995833333334),40,Mali,0,2017-07-01,sans opérateur,14.14,-4.98,Nouh Peulh / Commune de Diafarabe,CLUBER,Unknown
POINT (-2.219958333333352 15.069958333333332),30,Mali,0,2018-07-01,EGI,15.07,-2.22,Boni,CLUBER,Unknown
POINT (-4.949958333333342 14.349958333333333),20,Mali,0,2018-07-01,SEER,14.35,-4.95,Dia,CLUBER,Unknown
POINT (-2.239958333333334 14.439958333333337),30,Mali,0,2018-07-01,KAMA,14.44,-2.24,Dinagourou,CLUBER,Unknown
POINT (-2.299958333333336 14.52995833333334),40,Mali,0,2018-07-01,KAMA,14.53,-2.3,Douary,CLUBER,Unknown
POINT (-4.799958333333336 13.329958333333337),40,Mali,0,2018-07-01,FASO TRAVAUX,13.33,-4.8,Téné,CLUBER,Unknown
POINT (-4.63995833333334 13.329958333333337),30,Mali,0,2017-07-01,NL,13.33,-4.64,Fangasso / Commune de Fangasso,CLUBER,Unknown
POINT (-6.829958333333337 13.329958333333337),40,Mali,0,2017-07-01,NL,13.33,-6.83,Tamani / Commune de Tamani,CLUBER,Unknown
POINT (-5.40995833333335 12.839958333333342),30,Mali,0,2017-07-01,Unkonwn,12.84,-5.41,Diaramana / Commune de Diaramana,CLUBER,Unknown
POINT (-5.559958333333327 12.91995833333334),40,Mali,0,2017-07-01,NL,12.92,-5.56,Dougouolo / Commune de Dougouolo,CLUBER,Unknown
POINT (-5.189958333333351 13.719958333333338),40,Mali,0,2018-07-01,Unkonwn,13.72,-5.19,Bertha / Commune de Saloba,CLUBER,Unknown
POINT (-5.079958333333337 13.819958333333332),30,Mali,0,2018-07-01,Unkonwn,13.82,-5.08,Boubamorybougou / Commune de Sana,CLUBER,Unknown
POINT (-8.14995833333333 12.769958333333335),30,Mali,0,2018-07-01,Unkonwn,12.77,-8.15,Diago / Commune de Sana,CLUBER,Unknown
POINT (-5.239958333333334 13.679958333333332),30,Mali,0,2018-07-01,Unkonwn,13.68,-5.24,Diffoula / Commune de Saloba,CLUBER,Unknown
POINT (-5.209958333333333 13.709958333333333),30,Mali,0,2018-07-01,Unkonwn,13.71,-5.21,Dionbougouba / Commune de Saloba,CLUBER,Unknown
POINT (-5.239958333333334 13.689958333333337),40,Mali,0,2018-07-01,Unkonwn,13.69,-5.24,Dionbougoura / Commune de Saloba,CLUBER,Unknown
POINT (-5.539958333333345 13.91995833333334),80,Mali,0,2018-07-01,Unkonwn,13.92,-5.54,Kakan / Commune de Saloba,CLUBER,Unknown
POINT (-5.1099583333333385 13.75995833333333),40,Mali,0,2018-07-01,Unkonwn,13.76,-5.11,Kallala Bambara / Commune de Sana,CLUBER,Unknown
POINT (-5.1099583333333385 13.769958333333335),40,Mali,0,2018-07-01,Unkonwn,13.77,-5.11,Kallala Peulh / Commune de Sana,CLUBER,Unknown
POINT (-4.999958333333353 13.769958333333335),30,Mali,0,2018-07-01,Unkonwn,13.77,-5.0,Kerta / Commune de Sana,CLUBER,Unknown
POINT (-5.029958333333326 13.809958333333341),50,Mali,0,2018-07-01,Unkonwn,13.81,-5.03,Kienkourou / Commune de Sana,CLUBER,Unknown
POINT (-5.009958333333344 13.799958333333336),30,Mali,0,2018-07-01,Unkonwn,13.8,-5.01,Kougodiani / Commune de Sana,CLUBER,Unknown
POINT (-5.289958333333345 13.66995833333334),30,Mali,0,2018-07-01,Unkonwn,13.67,-5.29,Mangoni / Commune de Saloba,CLUBER,Unknown
POINT (-5.289958333333345 13.659958333333336),30,Mali,0,2018-07-01,Unkonwn,13.66,-5.29,Massa Were / Commune de Saloba,CLUBER,Unknown
POINT (-4.966708333333344 13.849958333333333),50,Mali,0,2017-07-01,NL,13.85,-4.9667,Matomo / Commune de Matomo,CLUBER,Unknown
POINT (-5.269958333333335 13.699958333333342),40,Mali,0,2018-07-01,Unkonwn,13.7,-5.27,Missena / Commune de Saloba,CLUBER,Unknown
POINT (-4.969958333333352 13.63995833333334),40,Mali,0,2018-07-01,Unkonwn,13.64,-4.97,Motomo / Commune de Sana,CLUBER,Unknown
POINT (-5.249958333333353 13.709958333333333),40,Mali,0,2018-07-01,Unkonwn,13.71,-5.25,Niantilela / Commune de Saloba,CLUBER,Unknown
POINT (-5.269958333333335 13.689958333333337),30,Mali,0,2018-07-01,Unkonwn,13.69,-5.27,Ouan Marka / Commune de Saloba,CLUBER,Unknown
POINT (-5.229958333333343 13.719958333333338),30,Mali,0,2017-07-01,Unkonwn,13.72,-5.23,Sarro / Commune de Saloba,CLUBER,Unknown
POINT (-5.239958333333334 13.719958333333338),50,Mali,0,2018-07-01,Unkonwn,13.72,-5.24,Sarro / Commune de Saloba,CLUBER,Unknown
POINT (-4.999958333333353 13.819958333333332),30,Mali,0,2018-07-01,Unkonwn,13.82,-5.0,Saye / Commune de Sana,CLUBER,Unknown
POINT (-5.209958333333333 13.689958333333337),40,Mali,0,2018-07-01,Unkonwn,13.69,-5.21,Sellen / Commune de Saloba,CLUBER,Unknown
POINT (-4.989958333333334 13.809958333333341),30,Mali,0,2018-07-01,Unkonwn,13.81,-4.99,Sewere / Commune de Sana,CLUBER,Unknown
POINT (-5.049958333333336 13.809958333333341),40,Mali,0,2018-07-01,Unkonwn,13.81,-5.05,Tlengolola / Commune de Sana,CLUBER,Unknown
POINT (-5.229958333333343 13.689958333333337),30,Mali,0,2018-07-01,Unkonwn,13.69,-5.23,Toumabougou / Commune de Saloba,CLUBER,Unknown
POINT (-5.8999583333333305 14.61995833333333),20,Mali,0,2017-07-01,NL,14.62,-5.9,Diambé / Commune de Diabaly,CLUBER,Unknown
POINT (-8.079958333333337 10.459958333333333),50,Mali,0,2017-07-01,NL,10.46,-8.08,Dinso / Commune de N'Goa,CLUBER,Unknown
POINT (-4.459958333333333 13.00995833333333),40,Mali,0,2017-07-01,NL,13.01,-4.46,Mandiakuy / Commune de Mandiakuy,CLUBER,Unknown
POINT (-4.969958333333352 13.599958333333333),30,Mali,0,2017-07-01,NL,13.6,-4.97,Sy / Commune de Sy,CLUBER,Unknown
POINT (-5.959958333333333 13.25995833333333),40,Mali,0,2017-07-01,SDD,13.26,-5.96,Cinzana / Commune de Cinzana,CLUBER,Unknown
POINT (-6.369958333333329 13.36995833333333),30,Mali,0,2017-07-01,SDD,13.37,-6.37,Dougoukouna / Commune de Sebougou,CLUBER,Unknown
POINT (-7.6499583333333305 13.109958333333338),40,Mali,0,2017-07-01,NL,13.11,-7.65,Koula / Commune de Koula,CLUBER,Unknown
POINT (-6.869958333333329 13.11995833333333),40,Mali,0,2018-07-01,GIE FITINE,13.12,-6.87,Boidié,CLUBER,Unknown
POINT (-6.499958333333353 12.829958333333337),40,Mali,0,2018-07-01,EPRODED,12.83,-6.5,Dioro,CLUBER,Unknown
POINT (-5.349958333333348 12.909958333333336),40,Mali,0,2018-07-01,SEECO,12.91,-5.35,Farakala,CLUBER,Unknown
POINT (-2.979958333333343 12.629958333333335),20,Mali,0,2018-07-01,GIE FITINE,12.63,-2.98,Kamba,CLUBER,Unknown
POINT (-6.1099583333333385 14.729958333333329),40,Mali,0,2018-07-01,SEECO,14.73,-6.11,Sokolo,CLUBER,Unknown
POINT (-4.789958333333345 13.329958333333337),40,Mali,0,2015-07-01,SEECO,13.33,-4.79,Ténéni,CLUBER,Operating
POINT (-5.829958333333337 13.109958333333338),50,Mali,0,2018-07-01,SEECO,13.11,-5.83,Touna,CLUBER,Unknown
POINT (-5.3199583333333464 13.059958333333341),40,Mali,0,2018-07-01,SEECO,13.06,-5.32,Yangasso,CLUBER,Unknown
POINT (-7.009958333333344 11.39995833333333),30,Mali,0,2017-07-01,sans opérateur,11.4,-7.01,Koualé / Commune de Koumantou,CLUBER,Unknown
POINT (-6.839958333333328 11.709958333333333),30,Mali,0,2017-07-01,SSD YELEN KURA,11.71,-6.84,SANSO / Commune de SANSO,CLUBER,Unknown
POINT (-7.599958333333348 11.66995833333334),50,Mali,0,2017-07-01,sans opérateur,11.67,-7.6,Sido / Commune de Sido,CLUBER,Unknown
POINT (-6.434375000000017 11.539958333333331),40,Mali,0,2018-07-01,ACCESS,11.54,-6.4344,Denié,CLUBER,Unknown
POINT (-5.759958333333344 12.38995833333334),20,Mali,0,2017-07-01,SSD YELEN KURA,12.39,-5.76,FIZANKORO / Commune de KONSEGUELA,CLUBER,Unknown
POINT (-5.559958333333327 12.729958333333329),40,Mali,0,2017-07-01,SSD YELEN KURA,12.73,-5.56,GOUANTIESSO / Commune de M'PESSOBA,CLUBER,Unknown
POINT (-5.709958333333333 12.729958333333329),40,Mali,0,2017-07-01,SSD YELEN KURA,12.73,-5.71,KINTIERI / Commune de M'PESSOBA,CLUBER,Unknown
POINT (-6.3599583333333385 11.729958333333329),50,Mali,0,2017-07-01,sans opérateur,11.73,-6.36,Dembéla / Commune de Dembela,CLUBER,Unknown
POINT (-5.749958333333353 11.25995833333333),20,Mali,0,2017-07-01,sans opérateur,11.26,-5.75,Missirikoro / Commune de Missirikoro,CLUBER,Unknown
POINT (-6.099958333333348 11.349958333333333),10,Mali,0,2017-07-01,ACCESS,11.35,-6.1,N'kourala / Commune de Kapolondougou,CLUBER,Unknown
POINT (-5.619958333333329 11.38995833333334),40,Mali,0,2017-07-01,sans opérateur,11.39,-5.62,Samogossoni / Commune de Diomatene,CLUBER,Unknown
POINT (-9.219958333333352 12.679958333333332),30,Mali,0,2017-07-01,ESE2,12.68,-9.22,Sirakoro / Commune de Yiridougou,CLUBER,Unknown
POINT (-8.049958333333336 11.049958333333336),40,Mali,0,2017-07-01,sans opérateur,11.05,-8.05,Ouassada / Commune de Wassoulou-bale,CLUBER,Unknown
POINT (-4.719958333333352 12.25995833333333),40,Mali,0,2017-07-01,SSD YELEN KURA,12.26,-4.72,N'GOROLA / Commune de KOURY,CLUBER,Unknown
POINT (-4.949958333333342 12.159958333333336),40,Mali,0,2017-07-01,SSD YELEN KURA,12.16,-4.95,TANDIO / Commune de KOURY,CLUBER,Unknown
POINT (-7.769958333333335 11.309958333333341),40,Mali,0,2018-07-01,ACCESS,11.31,-7.77,Faragouara,CLUBER,Unknown
POINT (-7.3599583333333385 10.679958333333332),10,Mali,0,2018-07-01,ACCESS,10.68,-7.36,Foulalaba,CLUBER,Unknown
POINT (-8.229958333333343 11.209958333333333),10,Mali,0,2018-07-01,ACCESS,11.21,-8.23,Goualala,CLUBER,Unknown
POINT (-7.039958333333345 11.269958333333335),50,Mali,0,2014-07-01,ACCESS sarl,11.27,-7.04,Kébila,CLUBER,Operating
POINT (-7.479958333333343 12.039958333333331),40,Mali,0,2018-07-01,ACCESS,12.04,-7.48,Koloni,CLUBER,Unknown
POINT (-5.979958333333343 11.039958333333331),50,Mali,0,2018-07-01,EAT,11.04,-5.98,Lobougoula,CLUBER,Unknown
POINT (-7.779958333333326 10.309958333333341),20,Mali,0,2018-07-01,ACCESS,10.31,-7.78,Madina Kouroulamini,CLUBER,Unknown
POINT (-7.439958333333351 10.449958333333342),10,Mali,0,2014-07-01,ACCESS sarl,10.45,-7.44,Manankoro,CLUBER,Operating
POINT (-6.039958333333345 10.39995833333333),50,Mali,0,2018-07-01,COGEACOM,10.4,-6.04,N'Goko,CLUBER,Unknown
POINT (-7.249958333333353 11.379958333333335),30,Mali,0,2014-07-01,ACCESS sarl,11.38,-7.25,Zantiebougou,CLUBER,Operating
POINT (-0.2989583333333314 17.659958333333336),30,Mali,0,2017-07-01,NL,17.66,-0.299,Bourem sidi amar / Commune de Bourem sidi,CLUBER,Unknown
POINT (-3.699958333333342 16.189958333333337),60,Mali,0,2017-07-01,sans opérateur,16.19,-3.7,Atta / Commune de Tonka,CLUBER,Unknown
POINT (-3.729958333333343 16.72995833333333),60,Mali,0,2017-07-01,MairieBintagoungou,16.73,-3.73,Bintagoungou / Commune de Bintagoungou,CLUBER,Unknown
POINT (-3.3699583333333294 16.569958333333332),60,Mali,0,2017-07-01,EMC,16.57,-3.37,Douékiré / Commune de Douekire,CLUBER,Unknown
POINT (-3.969958333333352 16.67995833333333),60,Mali,0,2017-07-01,ALBARKAYERKOYE,16.68,-3.97,M'Bouna / Commune de M'Bouna,CLUBER,Unknown
POINT (-3.719958333333352 16.269958333333335),60,Mali,0,2017-07-01,EMC,16.27,-3.72,Meykoré / Commune de Tonka,CLUBER,Unknown
POINT (-3.779958333333326 16.719958333333338),60,Mali,0,2017-07-01,sans opérateur,16.72,-3.78,Toukabangou / Commune de Issa Bery,CLUBER,Unknown
POINT (-3.8299583333333374 16.159958333333336),30,Mali,0,2017-07-01,sans opérateur,16.16,-3.83,Yourmi / Commune de Tonka,CLUBER,Unknown
POINT (-2.779958333333326 15.839958333333342),60,Mali,0,2017-07-01,NL,15.84,-2.78,Bambaramaoude / Commune de Bambaramaoude,CLUBER,Unknown
POINT (-1.2999583333333362 15.819958333333332),60,Mali,0,2018-07-01,Gourma construction,15.82,-1.3,Gossi,CLUBER,Unknown
POINT (-4.8999583333333305 15.709958333333333),60,Mali,0,2018-07-01,Enord,15.71,-4.9,Lere,CLUBER,Unknown
POINT (-10.359958333333338 14.599958333333333),40,Mali,0,2017-07-01,KAMA,14.6,-10.36,Sangafé / Commune de Diakon,CLUBER,Unknown
POINT (-13.05295833333335 20.507291666666667),60,Mauritania,0,2017-07-01,SOMELEC,20.5073,-13.053,Atar,CLUBER,Unknown
POINT (-13.916708333333332 17.049958333333336),50,Mauritania,0,2017-07-01,SOMELEC,17.05,-13.9167,Aleg,CLUBER,Unknown
POINT (-7.022958333333349 15.675291666666666),30,Mauritania,0,2017-07-01,APAUS,15.6753,-7.023,Adel Bagrou,CLUBER,Unknown
POINT (-7.249958333333353 16.616708333333335),50,Mauritania,0,2017-07-01,APAUS,16.6167,-7.25,Néma,CLUBER,Unknown
POINT (-11.524791666666658 18.641374999999996),60,Mauritania,0,2017-07-01,SOMELEC,18.6414,-11.5248,Tidjikja,CLUBER,Unknown
POINT (-12.620958333333334 16.710958333333338),60,Mauritania,0,2016-07-01,IBD,16.711,-12.621,Aftout,CLUBER,Unknown
POINT (-16.07220833333335 18.518124999999998),60,Mauritania,100,2016-07-01,APAUS,18.5181,-16.0722,Bellewakh,CLUBER,Unknown
POINT (-15.812708333333347 16.512208333333334),50,Mauritania,0,2016-07-01,Unkonwn,16.5122,-15.8127,Birette,CLUBER,Operating
POINT (-15.967375000000004 20.05079166666667),60,Mauritania,0,2014-07-01,Unkonwn,20.0508,-15.9674,Chami,CLUBER,Operating
POINT (-12.805458333333348 19.865208333333342),60,Mauritania,0,2016-07-01,Unkonwn,19.8652,-12.8055,Dhar,CLUBER,Unknown
POINT (-11.485791666666671 17.78387500000001),60,Mauritania,0,2015-07-01,Unkonwn,17.7839,-11.4858,El Ghediya,CLUBER,Unknown
POINT (-11.401125000000008 16.542708333333337),30,Mauritania,0,2016-07-01,AFD / UE,16.5427,-11.4011,Kiffa,CLUBER,Operating
POINT (-13.016708333333327 20.699708333333334),60,Mauritania,0,2015-07-01,Unkonwn,20.6997,-13.0167,Kser Torchane,CLUBER,Unknown
POINT (-16.137458333333342 18.688125),60,Mauritania,40,2016-07-01,APAUS,18.6881,-16.1375,Lemcid,CLUBER,Unknown
POINT (-16.232208333333347 19.031374999999997),60,Mauritania,230,2016-07-01,APAUS,19.0314,-16.2322,Lemhaijratt,CLUBER,Unknown
POINT (-16.507458333333346 16.166875000000005),90,Mauritania,0,2015-07-01,Unkonwn,16.1669,-16.5075,N?Diago-Ebden,CLUBER,Operating
POINT (-8.890791666666672 16.063874999999996),30,Mauritania,0,2014-07-01,Unkonwn,16.0639,-8.8908,Termessa,CLUBER,Operating
POINT (-11.524791666666658 18.641374999999996),60,Mauritania,0,2016-07-01,Unkonwn,18.6414,-11.5248,Tidjikja,CLUBER,Unknown
POINT (-16.172791666666683 18.871875000000003),60,Mauritania,60,2016-07-01,APAUS,18.8719,-16.1728,Tiwillit,CLUBER,Unknown
POINT (-12.475291666666664 22.732458333333334),50,Mauritania,0,2016-07-01,SNIM,22.7325,-12.4753,Zouerate,CLUBER,Unknown
POINT (-12.883458333333351 14.618458333333336),50,Senegal,0,2015-07-01,PNUD,14.6185,-12.8835,Bokki Saboundou,CLUBER,Unknown
POINT (-12.452708333333334 14.287625000000006),40,Senegal,0,2015-07-01,PNUD,14.2876,-12.4527,Banipelly,CLUBER,Unknown
POINT (-12.149458333333342 14.636708333333331),40,Senegal,0,2015-07-01,Unkonwn,14.6367,-12.1495,Débikholé 695,CLUBER,Unknown
POINT (-12.22770833333334 14.611208333333337),40,Senegal,0,2015-07-01,PNUD,14.6112,-12.2277,Hamadji 1168,CLUBER,Unknown
POINT (-12.110208333333333 12.639875000000004),40,Senegal,0,2015-07-01,Unkonwn,12.6399,-12.1102,Laminia,CLUBER,Unknown
POINT (-12.401875000000018 12.557208333333335),30,Senegal,0,2015-07-01,PNUD,12.5572,-12.4019,landébaytil,CLUBER,Unknown
POINT (-12.132208333333352 12.605208333333337),20,Senegal,0,2015-07-01,Unkonwn,12.6052,-12.1322,Samécouta,CLUBER,Unknown
POINT (-12.37929166666666 12.596791666666675),20,Senegal,0,2015-07-01,PNUD,12.5968,-12.3793,Syllacounda,CLUBER,Unknown
POINT (-12.483291666666673 13.39995833333333),40,Senegal,0,2015-07-01,PNUD,13.4,-12.4833,Boutougoufara,CLUBER,Unknown
POINT (-12.401458333333352 13.659291666666675),50,Senegal,0,2015-07-01,PNUD,13.6593,-12.4015,Dalafing,CLUBER,Unknown
POINT (-12.658291666666685 13.674125000000004),20,Senegal,0,2015-07-01,PNUD,13.6741,-12.6583,Dianke Makhan,CLUBER,Unknown
POINT (-12.713625000000008 13.618208333333342),40,Senegal,0,2015-07-01,PNUD,13.6182,-12.7136,Goutta Cebbe,CLUBER,Unknown
POINT (-12.319874999999996 13.307625000000002),40,Senegal,0,2015-07-01,PNUD,13.3076,-12.3199,Kayan,CLUBER,Unknown
POINT (-12.915458333333333 13.662708333333342),50,Senegal,0,2015-07-01,PNUD,13.6627,-12.9155,KOMOTI,CLUBER,Unknown
POINT (-14.673958333333331 15.275208333333339),30,Senegal,0,2015-07-01,PNUD,15.2752,-14.674,Diagaly,CLUBER,Unknown
POINT (-14.727791666666661 15.26529166666667),30,Senegal,0,2015-07-01,PNUD,15.2653,-14.7278,Loumbeul Lana,CLUBER,Unknown
POINT (-14.73770833333333 15.157458333333338),20,Senegal,0,2015-07-01,PNUD,15.1575,-14.7377,Touba Samady,CLUBER,Unknown
POINT (-12.26229166666667 14.518791666666672),30,Senegal,0,2015-07-01,PNUD,14.5188,-12.2623,Daharatou,CLUBER,Unknown
POINT (-12.199291666666682 14.556958333333341),10,Senegal,0,2015-07-01,Unkonwn,14.557,-12.1993,Dialiguel,CLUBER,Unknown
POINT (-12.204958333333337 14.463875000000002),80,Senegal,0,2015-07-01,PNUD,14.4639,-12.205,Diboly,CLUBER,Unknown
POINT (-12.224458333333331 14.383375000000001),30,Senegal,0,2015-07-01,PNUD,14.3834,-12.2245,Guita,CLUBER,Unknown
POINT (-12.203625000000017 14.41820833333334),30,Senegal,0,2015-07-01,PNUD,14.4182,-12.2036,Nayes,CLUBER,Unknown
POINT (-12.300708333333347 14.484958333333338),50,Senegal,0,2015-07-01,PNUD,14.485,-12.3007,Oubawol,CLUBER,Unknown
POINT (-12.388625000000019 14.501958333333334),40,Senegal,0,2015-07-01,PNUD,14.502,-12.3886,Ouro Sileye,CLUBER,Unknown
POINT (-12.212708333333353 14.538791666666668),40,Senegal,0,2015-07-01,PNUD,14.5388,-12.2127,Sinthiou Dialiguel,CLUBER,Unknown
POINT (-12.243124999999992 14.467875000000006),20,Senegal,0,2015-07-01,PNUD,14.4679,-12.2431,Sinthiou Diohe,CLUBER,Unknown
POINT (-15.655791666666659 15.56420833333334),30,Senegal,0,2015-07-01,PNUD,15.5642,-15.6558,Theyéne Djoloff,CLUBER,Unknown
POINT (-15.706874999999997 15.522208333333339),30,Senegal,0,2015-07-01,PNUD,15.5222,-15.7069,Yatti,CLUBER,Unknown
POINT (-12.933708333333328 14.091875000000002),20,Senegal,0,2015-07-01,PNUD,14.0919,-12.9337,BOYNGUEL BAMBA,CLUBER,Unknown
POINT (-12.69379166666667 13.91095833333334),40,Senegal,0,2015-07-01,PNUD,13.911,-12.6938,DIEYLANI,CLUBER,Unknown
POINT (-12.763125000000002 14.029875000000004),20,Senegal,0,2015-07-01,PNUD,14.0299,-12.7631,KOUDY,CLUBER,Unknown
POINT (-14.527125000000012 16.034875),30,Senegal,0,2015-07-01,PNUD,16.0349,-14.5271,Yaré,CLUBER,Unknown
POINT (-12.015208333333334 12.443958333333342),20,Senegal,0,2015-07-01,Unkonwn,12.444,-12.0152,Madiou (03),CLUBER,Unknown
POINT (-11.983208333333351 12.426791666666674),30,Senegal,0,2015-07-01,Unkonwn,12.4268,-11.9832,Niagalan,CLUBER,Unknown
POINT (-11.951625000000007 12.43420833333333),30,Senegal,0,2015-07-01,Unkonwn,12.4342,-11.9516,Secréta (03),CLUBER,Unknown
POINT (-11.93245833333333 12.444291666666672),30,Senegal,0,2015-07-01,Unkonwn,12.4443,-11.9325,Toumania,CLUBER,Unknown
POINT (-12.03295833333334 12.426958333333332),30,Senegal,0,2015-07-01,Unkonwn,12.427,-12.033,Walangkingui,CLUBER,Unknown
POINT (-15.36995833333333 15.009791666666672),40,Senegal,0,2015-07-01,PNUD,15.0098,-15.37,Sanghé,CLUBER,Unknown
POINT (-14.652791666666673 14.066791666666674),40,Senegal,0,2015-07-01,PNUD,14.0668,-14.6528,Tobéne,CLUBER,Unknown
POINT (-15.528708333333327 15.52195833333333),30,Senegal,0,2015-07-01,PNUD,15.522,-15.5287,Kamara,CLUBER,Unknown
POINT (-13.414208333333335 13.57245833333333),40,Senegal,0,2015-07-01,PNUD,13.5725,-13.4142,BAMBADINKA,CLUBER,Unknown
POINT (-14.399791666666658 13.492791666666676),50,Senegal,0,2015-07-01,PNUD,13.4928,-14.3998,TABANDING,CLUBER,Unknown
POINT (-13.172458333333338 13.688291666666672),40,Senegal,0,2015-07-01,PNUD,13.6883,-13.1725,GOUMBAYEL,CLUBER,Unknown
POINT (-13.37529166666667 13.700958333333332),40,Senegal,0,2015-07-01,PNUD,13.701,-13.3753,NOUMOUYEL,CLUBER,Unknown
POINT (-13.805875000000015 13.603875000000002),20,Senegal,0,2015-07-01,PNUD,13.6039,-13.8059,THIARA,CLUBER,Unknown
POINT (-12.607958333333329 14.09579166666667),40,Senegal,0,2015-07-01,PNUD,14.0958,-12.608,DOULAYABE,CLUBER,Unknown
POINT (-12.441458333333344 14.130375),40,Senegal,0,2015-07-01,PNUD,14.1304,-12.4415,KOUSSAN,CLUBER,Unknown
POINT (-12.749124999999992 14.156374999999997),50,Senegal,0,2015-07-01,PNUD,14.1564,-12.7491,SINTHIOU DEMBA (Sinthiou Moussa),CLUBER,Unknown
POINT (-14.51637500000001 15.776375000000002),30,Senegal,0,2015-07-01,PNUD,15.7764,-14.5164,Badagore,CLUBER,Unknown
POINT (-14.624875000000003 15.564708333333343),30,Senegal,0,2015-07-01,PNUD,15.5647,-14.6249,Lougeré Thioly,CLUBER,Unknown
POINT (-14.411875000000009 15.620374999999996),20,Senegal,0,2015-07-01,PNUD,15.6204,-14.4119,Ndiayéne séno,CLUBER,Unknown
POINT (-12.164291666666685 14.112625000000008),30,Senegal,0,2015-07-01,Unkonwn,14.1126,-12.1643,LALLI,CLUBER,Unknown
POINT (-12.080958333333342 13.85237500000001),50,Senegal,0,2015-07-01,Unkonwn,13.8524,-12.081,MEDINA FOULBE,CLUBER,Unknown
POINT (-14.095708333333334 13.671458333333334),40,Senegal,0,2015-07-01,PNUD,13.6715,-14.0957,Barocounda,CLUBER,Unknown
POINT (-14.158791666666673 13.654708333333332),40,Senegal,0,2015-07-01,PNUD,13.6547,-14.1588,Fadiyacounda,CLUBER,Unknown
POINT (-14.315208333333345 13.544791666666669),40,Senegal,0,2015-07-01,PNUD,13.5448,-14.3152,Maka cissé,CLUBER,Unknown
POINT (-14.359291666666678 13.585958333333338),40,Senegal,0,2015-07-01,PNUD,13.586,-14.3593,Sao Soucouta,CLUBER,Unknown
POINT (-14.399791666666658 13.492791666666676),50,Senegal,0,2015-07-01,PNUD,13.4928,-14.3998,Tabanding,CLUBER,Unknown
POINT (-14.176708333333352 15.76370833333334),30,Senegal,0,2015-07-01,PNUD,15.7637,-14.1767,Guirounasse,CLUBER,Unknown
POINT (-15.557125000000013 15.770125000000007),30,Senegal,0,2015-07-01,PNUD,15.7701,-15.5571,Mbaye Hawa,CLUBER,Unknown
POINT (-15.586208333333332 15.697958333333332),30,Senegal,0,2015-07-01,PNUD,15.698,-15.5862,Négué Mbeyenne,CLUBER,Unknown
POINT (-14.443958333333342 15.051708333333337),30,Senegal,0,2015-07-01,PNUD,15.0517,-14.444,Nawré,CLUBER,Unknown
POINT (-14.607208333333347 14.124291666666664),40,Senegal,0,2015-07-01,PNUD,14.1243,-14.6072,Patoulane Wolof,CLUBER,Unknown
POINT (-12.02770833333335 13.606458333333336),40,Senegal,0,2015-07-01,Unkonwn,13.6065,-12.0277,Laminia,CLUBER,Unknown
POINT (-12.186291666666676 14.04229166666667),40,Senegal,0,2015-07-01,Unkonwn,14.0423,-12.1863,Medina Tracole,CLUBER,Unknown
POINT (-12.214124999999996 13.92820833333333),40,Senegal,0,2015-07-01,PNUD,13.9282,-12.2141,Sansanding,CLUBER,Unknown
POINT (-12.214124999999996 13.967124999999996),40,Senegal,0,2015-07-01,PNUD,13.9671,-12.2141,Toumboura,CLUBER,Unknown
POINT (-13.569375000000008 14.227874999999997),40,Senegal,0,2015-07-01,PNUD,14.2279,-13.5694,SINTHIOU BOCAR ALY,CLUBER,Unknown
POINT (-12.379708333333326 14.219958333333338),30,Senegal,0,2015-07-01,PNUD,14.22,-12.3797,Samba Colo,CLUBER,Unknown
POINT (-12.433291666666662 14.317625000000007),40,Senegal,0,2015-07-01,PNUD,14.3176,-12.4333,Seoudji,CLUBER,Unknown
POINT (-12.398458333333338 14.347458333333336),40,Senegal,0,2015-07-01,PNUD,14.3475,-12.3985,Youpe Hamady,CLUBER,Unknown
POINT (-12.669375000000002 14.495874999999998),30,Senegal,0,2015-07-01,PNUD,14.4959,-12.6694,DIARRE MABOUBE II,CLUBER,Unknown
POINT (-12.910791666666682 14.227208333333337),40,Senegal,0,2015-07-01,PNUD,14.2272,-12.9108,LORIDJE,CLUBER,Unknown
POINT (-15.276708333333346 15.735208333333333),40,Senegal,0,2015-07-01,PNUD,15.7352,-15.2767,Amady,CLUBER,Unknown
POINT (-15.06545833333334 15.851875000000007),30,Senegal,0,2015-07-01,PNUD,15.8519,-15.0655,Téssékéré,CLUBER,Unknown
POINT (-15.327625000000012 15.994208333333333),30,Senegal,0,2015-07-01,PNUD,15.9942,-15.3276,Widou Thiéngoly,CLUBER,Unknown
POINT (-15.167708333333337 15.290291666666675),20,Senegal,0,2015-07-01,PNUD,15.2903,-15.1677,Khoghé,CLUBER,Unknown
POINT (-15.14520833333333 14.753208333333333),50,Senegal,0,2015-07-01,PNUD,14.7532,-15.1452,Dolly,CLUBER,Unknown
POINT (-14.96779166666667 14.968125),20,Senegal,0,2015-07-01,PNUD,14.9681,-14.9678,Sillat,CLUBER,Unknown
POINT (-15.07745833333334 15.036875000000009),30,Senegal,0,2015-07-01,PNUD,15.0369,-15.0775,Thiel cenntre,CLUBER,Unknown
POINT (-14.874958333333325 14.669458333333338),30,Senegal,0,2015-07-01,PNUD,14.6695,-14.875,Wadane Djolof,CLUBER,Unknown
POINT (-17.28295833333334 14.807625000000002),50,Senegal,0,2015-07-01,PNUD,14.8076,-17.283,Tivaoune Peul,CLUBER,Unknown
POINT (-12.23570833333335 12.770708333333332),50,Senegal,0,2015-07-01,PNUD,12.7707,-12.2357,Bantako,CLUBER,Unknown
POINT (-12.549958333333336 13.01670833333334),10,Senegal,0,2015-07-01,PNUD,13.0167,-12.55,Niéméniké,CLUBER,Unknown
POINT (-14.744124999999997 14.630875000000003),50,Senegal,0,2015-07-01,PNUD,14.6309,-14.7441,Thionkh,CLUBER,Unknown
POINT (-14.403875 14.817791666666665),30,Senegal,0,2015-07-01,PNUD,14.8178,-14.4039,Mben-Mben,CLUBER,Unknown
POINT (-14.679374999999993 15.00029166666667),50,Senegal,0,2015-07-01,PNUD,15.0003,-14.6794,Vélingara,CLUBER,Unknown
POINT (-16.64995833333333 12.633291666666665),95,Senegal,0,2016-07-01,Sunna Design,12.6333,-16.65,Niomoune,CLUBER,Operating
POINT (-13.549958333333336 16.116708333333335),20,Senegal,0,2016-07-01,PNUD,16.1167,-13.55,Gababé,CLUBER,Operating
POINT (-12.434791666666683 14.117125000000001),20,Senegal,0,2016-07-01,PNUD,14.1171,-12.4348,Oudalaye,CLUBER,Operating
POINT (35.314875 1.824958333333342),20,Tanzania,0,2015-07-01,Rafiki Power,1.825,35.3149,Ololosokwan,CLUBER,Operating
POINT (35.41670833333333 -1.9000416666666666),30,Tanzania,0,2015-07-01,Rafiki Power,-1.9,35.4167,Soitsambu,CLUBER,Operating
POINT (39.260041666666666 -6.840041666666664),10,Tanzania,356,2017-07-01,Rafiki Power,-6.84,39.26,Chang'ombe,CLUBER,Operating
POINT (39.718625 -7.902374999999992),30,Tanzania,0,2017-07-01,Rafiki Power,-7.9024,39.7186,Dongo,CLUBER,Operating
POINT (36.72354166666665 -3.8432083333333367),50,Tanzania,0,2015-07-01,Rafiki Power,-3.8432,36.7235,Temeke,CLUBER,Operating
POINT (39.693625 -7.897874999999999),30,Tanzania,0,2014-07-01,Unkonwn,-7.8979,39.6936,Ngombeni,CLUBER,Operating
POINT (36.36904166666665 -5.7137916666666655),20,Tanzania,0,2015-07-01,Unkonwn,-5.7138,36.369,Leganga / Chitego,CLUBER,Operating
POINT (36.81804166666666 -5.996124999999992),40,Tanzania,0,2015-07-01,Unkonwn,-5.9961,36.818,Lobilo / Lenjulu,CLUBER,Operating
POINT (36.331708333333324 -5.596041666666665),30,Tanzania,0,2015-07-01,Unkonwn,-5.596,36.3317,Ngutoto / Chitego,CLUBER,Operating
POINT (36.53604166666665 -5.754041666666666),40,Tanzania,0,2015-07-01,Unkonwn,-5.754,36.536,Silale / Makawa,CLUBER,Operating
POINT (31.50304166666666 -3.3193749999999937),30,Tanzania,25,2014-07-01,Unkonwn,-3.3194,31.503,Uyovu,CLUBER,Operating
POINT (36.19379166666667 -7.668875),20,Tanzania,0,2015-07-01,Unkonwn,-7.6689,36.1938,Maguta/Lung'ali (I&II),CLUBER,Unknown
POINT (34.47162499999999 -9.842874999999992),10,Tanzania,0,2014-07-01,ACRA-CCS with the local NGO Njombe Development Office (NDO),-9.8429,34.4716,Mawengi,CLUBER,Operating
POINT (31.38204166666665 -2.8148750000000007),40,Tanzania,69,2014-07-01,Unkonwn,-2.8149,31.382,Runazi,CLUBER,Operating
POINT (32.13004166666667 -6.798208333333335),50,Tanzania,0,2015-07-01,Unkonwn,-6.7982,32.13,Ilela,CLUBER,Operating
POINT (32.484041666666656 -6.742041666666665),50,Tanzania,0,2015-07-01,Unkonwn,-6.742,32.484,Ilunde,CLUBER,Operating
POINT (32.01704166666667 -6.776791666666668),50,Tanzania,0,2015-07-01,Unkonwn,-6.7768,32.017,Nsenkwa,CLUBER,Operating
POINT (37.18204166666666 -5.396791666666658),50,Tanzania,10,2014-07-01,Unkonwn,-5.3968,37.182,Kijungu,CLUBER,Operating
POINT (36.804125 -7.568208333333331),10,Tanzania,0,2015-07-01,Unkonwn,-7.5682,36.8041,Yovi Phase I,CLUBER,Unknown
POINT (37.849041666666665 -7.260708333333326),30,Tanzania,0,2016-07-01,Unkonwn,-7.2607,37.849,Kongwa,CLUBER,Operating
POINT (35.19604166666667 -9.956041666666664),10,Tanzania,0,2014-07-01,Unkonwn,-9.956,35.196,Mahanje (East),CLUBER,Operating
POINT (35.07404166666666 -11.021041666666662),20,Tanzania,842,2015-07-01,Unkonwn,-11.021,35.074,Mbangomao,CLUBER,Operating
POINT (35.270541666666674 -10.805208333333326),40,Tanzania,7800,2016-07-01,Unkonwn,-10.8052,35.2705,Chipole Mission,CLUBER,Operating
POINT (35.20104166666667 -10.86304166666666),20,Tanzania,0,2014-07-01,Unkonwn,-10.863,35.201,Chipole Mission,CLUBER,Operating
POINT (34.954041666666654 -11.157041666666657),20,Tanzania,0,2014-07-01,Unkonwn,-11.157,34.954,Lumeme,CLUBER,Operating
POINT (34.80004166666666 -10.85304166666667),40,Tanzania,0,2014-07-01,Unkonwn,-10.853,34.8,LUNDOMATO MISSION,CLUBER,Operating
POINT (32.42104166666667 -3.5335416666666646),50,Tanzania,29,2014-07-01,Unkonwn,-3.5335,32.421,Segese,CLUBER,Operating
POINT (32.930041666666654 -3.569874999999996),50,Tanzania,36,2014-07-01,Unkonwn,-3.5699,32.93,Lyabukande,CLUBER,Operating
POINT (32.73504166666666 -3.3926249999999953),50,Tanzania,38,2014-07-01,Unkonwn,-3.3926,32.735,Mwakitolyo,CLUBER,Operating
POINT (31.742708333333326 -5.034041666666667),20,Tanzania,14,2014-07-01,Unkonwn,-5.034,31.7427,Kona Nne,CLUBER,Operating
POINT (33.847041666666655 -5.040875),40,Tanzania,0,2015-07-01,Unkonwn,-5.0409,33.847,Loya,CLUBER,Operating
POINT (33.486041666666665 -4.950625000000002),40,Tanzania,0,2015-07-01,Unkonwn,-4.9506,33.486,Lutende,CLUBER,Operating
POINT (33.84354166666665 -5.4950416666666655),50,Tanzania,0,2015-07-01,Unkonwn,-5.495,33.8435,Tura,CLUBER,Operating
POINT (32.720041666666646 -8.800041666666658),40,Tanzania,0,2017-07-01,REDAVIA,-8.8,32.72,Isenzanya,CLUBER,Operating
POINT (35.710041666666655 -2.1300416666666706),20,Tanzania,0,2015-07-01,Rafiki Power,-2.13,35.71,Digo Digo,CLUBER,Operating
POINT (33.03004166666665 -1.8740416666666704),40,Tanzania,0,2016-07-01,JUMEME,-1.874,33.03,"Bwisya, Ukara Island",CLUBER,Operating
POINT (36.00004166666665 -4.550041666666658),40,Tanzania,0,2016-07-01,Rafiki Power,-4.55,36.0,Itaswi,CLUBER,Operating
POINT (31.530041666666648 -7.6000416666666695),30,Tanzania,0,2015-07-01,Unkonwn,-7.6,31.53,Kalumbaleza Power Project,CLUBER,Operating
POINT (36.71754166666665 -3.834291666666658),50,Tanzania,0,2014-07-01,Rafiki Power,-3.8343,36.7175,Komolo,CLUBER,Operating
POINT (35.430041666666654 -5.230041666666665),40,Tanzania,0,2016-07-01,Rafiki Power,-5.23,35.43,Kwa Mtoro,CLUBER,Operating
POINT (30.36004166666666 -6.310041666666663),30,Tanzania,0,2014-07-01,Unkonwn,-6.31,30.36,Lwega Hydropower Project,CLUBER,Operating
POINT (39.783291666666656 -7.8500416666666695),40,Tanzania,0,2014-07-01,TANESCO,-7.85,39.7833,MAFIA ISLAND,CLUBER,Operating
POINT (39.75004166666665 -7.86004166666666),10,Tanzania,0,2015-07-01,Unkonwn,-7.86,39.75,Mafia Solar Project,CLUBER,Operating
POINT (34.06004166666665 -9.200041666666664),30,Tanzania,0,2014-07-01,KIBATCO Co. Ltd,-9.2,34.06,Makete / Lyamanji hydropower,CLUBER,Operating
POINT (30.58004166666666 -6.150041666666667),10,Tanzania,0,2016-07-01,Rafiki Power,-6.15,30.58,Malambo,CLUBER,Operating
POINT (34.980041666666665 -10.940041666666659),10,Tanzania,0,2015-07-01,Andoya Hydro Electric Power Ltd (AHEPO),-10.94,34.98,Mbinga,CLUBER,Operating
POINT (31.07004166666667 -6.340041666666664),50,Tanzania,0,2015-07-01,Unkonwn,-6.34,31.07,Mpanda Solar Project,CLUBER,Operating
POINT (39.75004166666665 -7.869041666666661),10,Tanzania,0,2014-07-01,TANESCO,-7.869,39.75,"Ngombei, Mafia Island",CLUBER,Operating
POINT (35.64004166666666 -10.640041666666662),50,Tanzania,0,2015-07-01,St. Agnes Chipole,-10.64,35.64,Songea,CLUBER,Operating
POINT (31.61004166666666 -7.940041666666659),40,Tanzania,0,2015-07-01,Unkonwn,-7.94,31.61,Sumbawanga Solar Project,CLUBER,Operating
POINT (31.650041666666652 -7.750041666666661),20,Tanzania,0,2015-07-01,Unkonwn,-7.75,31.65,Uzia Hydro Power Projecft,CLUBER,Operating
POINT (0.659041666666667 7.999958333333339),50,Togo,500,2017-07-01,Unkonwn,8.0,0.659,Assoukoko,CLUBER,Operating
POINT (0.6500416666666524 8.183291666666676),10,Togo,0,2016-07-01,CEET,8.1833,0.65,Yegue,CLUBER,Operating
POINT (0.7000416666666638 8.933291666666676),10,Togo,0,2018-07-01,Unkonwn,8.9333,0.7,FOLO BANDA,CLUBER,Unknown
POINT (0.2585416666666731 9.546374999999998),30,Togo,0,2018-07-01,Unkonwn,9.5464,0.2585,KANDJO,CLUBER,Unknown
POINT (0.5167083333333267 9.816708333333338),40,Togo,0,2018-07-01,Unkonwn,9.8167,0.5167,TAKA/TEMA,CLUBER,Unknown
POINT (0.6500416666666524 8.683291666666676),10,Togo,0,2018-07-01,Unkonwn,8.6833,0.65,TASSI,CLUBER,Unknown
POINT (1.300041666666658 7.999958333333339),40,Togo,0,2018-07-01,Unkonwn,8.0,1.3,ELEVAGNON,CLUBER,Unknown
POINT (1.010041666666666 8.999958333333339),10,Togo,0,2018-07-01,Unkonwn,9.0,1.01,KOUVON,CLUBER,Unknown
POINT (1.2332916666666733 8.449958333333342),20,Togo,0,2018-07-01,Unkonwn,8.45,1.2333,MONO,CLUBER,Unknown
POINT (1.1332916666666506 8.983291666666673),50,Togo,0,2016-07-01,CEET,8.9833,1.1333,Sokode,CLUBER,Operating
POINT (0.566708333333338 8.76670833333334),40,Togo,130,2016-07-01,CEET,8.7667,0.5667,Djarikpanga,CLUBER,Operating
POINT (1.3832916666666506 9.46670833333333),40,Togo,0,2018-07-01,Unkonwn,9.4667,1.3833,GBAO,CLUBER,Unknown
POINT (0.616708333333321 9.449958333333342),30,Togo,85,2016-07-01,CEET,9.45,0.6167,Bandjeli,CLUBER,Operating
POINT (0.7667083333333267 9.39995833333333),40,Togo,0,2018-07-01,Unkonwn,9.4,0.7667,BOUNLARE,CLUBER,Unknown
POINT (0.5896249999999839 9.203291666666672),10,Togo,108,2016-07-01,CEET,9.2033,0.5896,Dimori,CLUBER,Operating
POINT (0.5832916666666677 9.20245833333334),30,Togo,0,2016-07-01,CEET,9.2025,0.5833,Dimouri,CLUBER,Operating
POINT (0.5700416666666683 9.11995833333333),30,Togo,0,2017-07-01,Unkonwn,9.12,0.57,Kountoum,CLUBER,Operating
POINT (0.816708333333338 10.849958333333333),50,Togo,194,2016-07-01,CEET,10.85,0.8167,Mandouri,CLUBER,Operating
POINT (0.6212083333333283 9.060125),20,Togo,0,2018-07-01,Unkonwn,9.0601,0.6212,TCHAPOSSI,CLUBER,Unknown
POINT (0.6500416666666524 9.166708333333332),40,Togo,0,2018-07-01,Unkonwn,9.1667,0.65,WALELE,CLUBER,Unknown
POINT (1.186125000000004 9.551124999999999),50,Togo,0,2018-07-01,Unkonwn,9.5511,1.1861,LAMA-DESSI 1,CLUBER,Unknown
POINT (0.4513749999999845 9.936374999999998),40,Togo,0,2018-07-01,Unkonwn,9.9364,0.4514,DJABOKOU,CLUBER,Unknown
POINT (0.7500416666666467 9.733291666666673),40,Togo,0,2018-07-01,Unkonwn,9.7333,0.75,GARIMBOM,CLUBER,Unknown
POINT (0.5257916666666631 9.887458333333342),30,Togo,0,2018-07-01,Unkonwn,9.8875,0.5258,KATCHAMBA CENTRE,CLUBER,Unknown
POINT (0.4000416666666524 9.883291666666665),20,Togo,0,2018-07-01,Unkonwn,9.8833,0.4,KPANKPANDE,CLUBER,Unknown
POINT (0.6000416666666695 9.816708333333338),40,Togo,0,2018-07-01,Unkonwn,9.8167,0.6,NAMAB,CLUBER,Unknown
POINT (0.4053749999999923 9.603291666666664),30,Togo,0,2018-07-01,Unkonwn,9.6033,0.4054,NANDOUTA,CLUBER,Unknown
POINT (0.6500416666666524 9.816708333333338),30,Togo,0,2018-07-01,Unkonwn,9.8167,0.65,NAPIMBO,CLUBER,Unknown
POINT (0.5500416666666581 9.51670833333334),20,Togo,0,2018-07-01,Unkonwn,9.5167,0.55,POUTAMELE,CLUBER,Unknown
POINT (0.923624999999987 9.787458333333333),40,Togo,0,2018-07-01,Unkonwn,9.7875,0.9236,AGBASSA,CLUBER,Unknown
POINT (1.183291666666662 9.883291666666665),10,Togo,0,2018-07-01,Unkonwn,9.8833,1.1833,KORE,CLUBER,Unknown
POINT (1.2878749999999854 10.006875000000008),40,Togo,0,2018-07-01,Unkonwn,10.0069,1.2879,TCHITCHIRA,CLUBER,Unknown
POINT (1.183291666666662 9.549958333333336),50,Togo,0,2016-07-01,CEET,9.55,1.1833,Kara,CLUBER,Operating
POINT (1.116708333333321 10.049958333333336),20,Togo,0,2018-07-01,Unkonwn,10.05,1.1167,DISSANI (BASSAMBA),CLUBER,Unknown
POINT (1.1332083333333287 9.999958333333339),10,Togo,0,2018-07-01,Unkonwn,10.0,1.1332,KOUNITI,CLUBER,Unknown
POINT (0.3118749999999864 10.547791666666669),30,Togo,0,2016-07-01,CEET,10.5478,0.3119,Barkoissi,CLUBER,Operating
POINT (0.9206250000000011 6.5702083333333405),50,Togo,0,2018-07-01,Unkonwn,6.5702,0.9206,AGBESSIA,CLUBER,Unknown
POINT (0.9667083333333153 6.549958333333336),10,Togo,0,2018-07-01,Unkonwn,6.55,0.9667,AGBLEDO,CLUBER,Unknown
POINT (0.9831250000000011 6.33312500000001),30,Togo,0,2018-07-01,Unkonwn,6.3331,0.9831,AGOVE,CLUBER,Unknown
POINT (0.9000416666666524 6.449958333333342),40,Togo,0,2018-07-01,Unkonwn,6.45,0.9,ATTI-ATOVOU,CLUBER,Unknown
POINT (1.353874999999988 6.164375000000007),80,Togo,0,2018-07-01,Unkonwn,6.1644,1.3539,BAKA KOPE,CLUBER,Unknown
POINT (1.2506249999999852 6.138125000000002),50,Togo,0,2018-07-01,Unkonwn,6.1381,1.2506,AVINATO,CLUBER,Unknown
POINT (1.1000416666666695 6.249958333333339),20,Togo,0,2018-07-01,Unkonwn,6.25,1.1,DANGBESSITO,CLUBER,Unknown
POINT (1.6000416666666695 6.366708333333335),30,Togo,0,2018-07-01,Unkonwn,6.3667,1.6,MAMISSI,CLUBER,Unknown
POINT (0.883624999999995 6.431624999999997),20,Togo,500,2015-07-01,PNUD,6.4316,0.8836,Ando Kpomey,CLUBER,Unknown
POINT (1.5000416666666467 6.583291666666668),10,Togo,870,2015-07-01,PNUD,6.5833,1.5,Donomade,CLUBER,Unknown
POINT (1.066708333333338 6.599958333333333),10,Togo,0,2018-07-01,Unkonwn,6.6,1.0667,AGBETIM,CLUBER,Unknown
POINT (1.0221249999999884 6.829291666666663),50,Togo,0,2018-07-01,Unkonwn,6.8293,1.0221,AGBODJEKPO,CLUBER,Unknown
POINT (0.9348750000000052 6.761208333333329),50,Togo,0,2018-07-01,Unkonwn,6.7612,0.9349,AGOKPALA,CLUBER,Unknown
POINT (0.9667083333333153 6.749958333333339),20,Togo,0,2018-07-01,Unkonwn,6.75,0.9667,AKE,CLUBER,Unknown
POINT (1.050041666666658 6.516708333333341),10,Togo,0,2018-07-01,Unkonwn,6.5167,1.05,DAFOLENYAME et ses fermes,CLUBER,Unknown
POINT (0.7832916666666563 6.666708333333332),30,Togo,0,2018-07-01,Unkonwn,6.6667,0.7833,GAME NYATIVE,CLUBER,Unknown
POINT (1.0208749999999895 6.726291666666668),50,Togo,0,2018-07-01,Unkonwn,6.7263,1.0209,GAME-KODJE,CLUBER,Unknown
POINT (1.1000416666666695 6.599708333333339),10,Togo,0,2018-07-01,Unkonwn,6.5997,1.1,GAPE ALOYI,CLUBER,Unknown
POINT (1.0341249999999889 6.868208333333342),50,Togo,0,2018-07-01,Unkonwn,6.8682,1.0341,TOKPO,CLUBER,Unknown
POINT (1.1667083333333323 6.7832916666666705),20,Togo,0,2018-07-01,Unkonwn,6.7833,1.1667,TSITO,CLUBER,Unknown
POINT (1.1497083333333364 7.2167083333333295),40,Togo,0,2016-07-01,CEET,7.2167,1.1497,Kougnohou,CLUBER,Operating
POINT (1.560041666666649 7.349958333333333),20,Togo,176,2017-07-01,CEET,7.35,1.56,Bavou / Canton d'Ountivou,CLUBER,Operating
POINT (0.93912499999999 6.911791666666673),20,Togo,0,2018-07-01,AT2ER,6.9118,0.9391,Agbave,CLUBER,Unknown
POINT (1.267374999999987 6.164458333333343),50,Togo,0,2018-07-01,AT2ER,6.1645,1.2674,Agoe Akodessewa,CLUBER,Unknown
POINT (0.866708333333321 6.833291666666668),20,Togo,0,2018-07-01,AT2ER,6.8333,0.8667,Agokplame,CLUBER,Unknown
POINT (0.8000416666666581 6.699958333333342),20,Togo,0,2018-07-01,AT2ER,6.7,0.8,Amavenou,CLUBER,Unknown
POINT (0.8332916666666677 6.699958333333342),40,Togo,0,2018-07-01,AT2ER,6.7,0.8333,Damade,CLUBER,Unknown
POINT (0.897625000000005 6.527208333333334),50,Togo,0,2018-07-01,AT2ER,6.5272,0.8976,Fokpo,CLUBER,Unknown
POINT (0.9167083333333323 6.816708333333338),20,Togo,0,2018-07-01,AT2ER,6.8167,0.9167,Kologan,CLUBER,Unknown
POINT (0.8832916666666506 6.799958333333336),20,Togo,0,2018-07-01,AT2ER,6.8,0.8833,Kpovenou,CLUBER,Unknown
POINT (1.2832916666666563 6.166708333333332),50,Togo,0,2018-07-01,AT2ER,6.1667,1.2833,Lakponou,CLUBER,Unknown
POINT (0.7113750000000039 6.760708333333341),50,Togo,0,2018-07-01,AT2ER,6.7607,0.7114,Nyidove,CLUBER,Unknown
POINT (0.666041666666672 7.318125000000009),10,Togo,0,2018-07-01,Unkonwn,7.3181,0.666,DENOU,CLUBER,Unknown
POINT (0.9832916666666733 6.9667083333333295),20,Togo,0,2018-07-01,Unkonwn,6.9667,0.9833,KPEVE,CLUBER,Unknown
POINT (0.6121249999999918 7.126291666666674),10,Togo,0,2018-07-01,Unkonwn,7.1263,0.6121,YIKPA - DJIGBE,CLUBER,Unknown
POINT (0.9047083333333319 7.093708333333339),40,Togo,0,2018-07-01,Unkonwn,7.0937,0.9047,BODJE,CLUBER,Unknown
POINT (1.3500416666666695 9.666708333333332),50,Togo,0,2018-07-01,Unkonwn,9.6667,1.35,KEMERIDA 1,CLUBER,Unknown
POINT (1.550041666666658 8.199958333333342),10,Togo,0,2018-07-01,Unkonwn,8.2,1.55,KOKOLO COPE,CLUBER,Unknown
POINT (0.6472083333333387 7.005875000000003),10,Togo,0,2016-07-01,CEET,7.0059,0.6472,Kpimé,CLUBER,Operating
POINT (1.1650416666666672 6.223624999999998),50,Togo,0,2018-07-01,Unkonwn,6.2236,1.165,TCHOKPO KOPE,CLUBER,Unknown
POINT (0.8000416666666581 7.249958333333339),10,Togo,0,2018-07-01,Unkonwn,7.25,0.8,AGOTE,CLUBER,Unknown
POINT (1.5000416666666467 7.233291666666673),40,Togo,0,2016-07-01,CEET,7.2333,1.5,Ahassome,CLUBER,Operating
POINT (0.7832916666666563 7.733291666666673),10,Togo,0,2016-07-01,CEET,7.7333,0.7833,Djon,CLUBER,Operating
POINT (1.6331250000000068 7.2167083333333295),20,Togo,0,2016-07-01,CEET,7.2167,1.6331,Saligbe,CLUBER,Operating
POINT (1.5831249999999955 7.1499583333333305),10,Togo,0,2016-07-01,CEET,7.15,1.5831,Tado,CLUBER,Operating
POINT (1.616708333333321 7.33312500000001),20,Togo,0,2016-07-01,CEET,7.3331,1.6167,Kpékplémé,CLUBER,Operating
POINT (1.1500416666666524 7.616708333333335),30,Togo,0,2018-07-01,Unkonwn,7.6167,1.15,DJEREHOUYE,CLUBER,Unknown
POINT (0.7332916666666733 7.583291666666668),10,Togo,0,2018-07-01,Unkonwn,7.5833,0.7333,BENALI,CLUBER,Unknown
POINT (1.6445416666666688 8.018708333333336),50,Togo,0,2018-07-01,Unkonwn,8.0187,1.6445,DOUME ELAVAGNON,CLUBER,Unknown
POINT (0.8332916666666677 7.499958333333339),50,Togo,0,2018-07-01,Unkonwn,7.5,0.8333,EKETO,CLUBER,Unknown
POINT (0.8000416666666581 7.516708333333341),30,Togo,0,2018-07-01,Unkonwn,7.5167,0.8,GOBE EGBO,CLUBER,Unknown
POINT (1.0332916666666563 7.566708333333338),10,Togo,0,2018-07-01,Unkonwn,7.5667,1.0333,KLABE AZAFI,CLUBER,Unknown
POINT (1.3500416666666695 7.433291666666676),40,Togo,0,2018-07-01,Unkonwn,7.4333,1.35,LOM-NAVA,CLUBER,Unknown
POINT (0.7000416666666638 7.583291666666668),10,Togo,0,2018-07-01,Unkonwn,7.5833,0.7,OTANDJOBO,CLUBER,Unknown
POINT (0.7000416666666638 7.333291666666668),30,Togo,0,2018-07-01,Unkonwn,7.3333,0.7,TODOME,CLUBER,Unknown
POINT (0.6835416666666561 7.505708333333331),10,Togo,0,2018-07-01,Unkonwn,7.5057,0.6835,ZOMENOU,CLUBER,Unknown
POINT (1.6000416666666695 7.816708333333338),10,Togo,0,2018-07-01,Unkonwn,7.8167,1.6,ZONGO YEYE,CLUBER,Unknown
POINT (0.8000416666666581 10.179958333333332),40,Togo,0,2018-07-01,Unkonwn,10.18,0.8,Takpapiéni / Nganbi,CLUBER,Operating
POINT (0.4000416666666524 10.183291666666676),40,Togo,0,2016-07-01,CEET,10.1833,0.4,Fare,CLUBER,Operating
POINT (0.7447083333333353 10.332458333333335),50,Togo,254,2016-07-01,CEET,10.3325,0.7447,Gando,CLUBER,Operating
POINT (0.64387499999998 10.383875000000003),50,Togo,31,2016-07-01,CEET,10.3839,0.6439,Mogou,CLUBER,Operating
POINT (0.2640416666666567 10.581958333333333),40,Togo,0,2018-07-01,AT2ER,10.582,0.264,Nadjir,CLUBER,Unknown
POINT (0.4667083333333153 10.166708333333332),40,Togo,0,2018-07-01,AT2ER,10.1667,0.4667,Nandiki,CLUBER,Unknown
POINT (0.565291666666667 9.969208333333341),20,Togo,0,2016-07-01,CEET,9.9692,0.5653,Takpamba,CLUBER,Operating
POINT (0.2667083333333267 10.96670833333333),40,Togo,0,2018-07-01,AT2ER,10.9667,0.2667,Dalagou,CLUBER,Unknown
POINT (0.316708333333338 10.749958333333339),40,Togo,0,2018-07-01,AT2ER,10.75,0.3167,Ganlore,CLUBER,Unknown
POINT (0.2342916666666497 10.983791666666676),40,Togo,0,2018-07-01,AT2ER,10.9838,0.2343,Kpeguibongue,CLUBER,Unknown
POINT (0.1910416666666492 10.962874999999997),40,Togo,0,2018-07-01,AT2ER,10.9629,0.191,Tanninkaog,CLUBER,Unknown
POINT (0.1888749999999959 10.982958333333329),40,Togo,0,2018-07-01,AT2ER,10.983,0.1889,Timangue,CLUBER,Unknown
POINT (0.2036249999999882 10.867791666666676),50,Togo,0,2016-07-01,CEET,10.8678,0.2036,Dapaong,CLUBER,Operating
POINT (0.6430416666666474 10.245125000000002),50,Togo,69,2016-07-01,CEET,10.2451,0.643,Sabiegou,CLUBER,Operating
POINT (31.760041666666666 -14.210041666666669),40,Zambia,60,2017-07-01,Musika Development Initiatives,-14.21,31.76,Sinda Village,CLUBER,Operating
POINT (29.050041666666658 -21.782041666666657),30,Zimbabwe,0,2016-07-01,SNV and Practical Action,-21.782,29.05,Mashaba,CLUBER,Operating
