{
"type": "FeatureCollection",
"name": "mgs_iea_29",
"crs": { "type": "name", "properties": { "name": "urn:ogc:def:crs:OGC:1.3:CRS84" } },
"features": [
{ "type": "Feature", "properties": { "site_name": "CHAG Pilot - Wenchi Methodist Hospital", "country": "Ghana", "date_commissioned": "2022-04-29", "source": "cbil" }, "geometry": { "type": "Point", "coordinates": [ -2.11181101047494, 7.738436611624516 ] } },
{ "type": "Feature", "properties": { "site_name": "CHAG Pilot - Dormaa Presbyterian Hospital", "country": "Ghana", "date_commissioned": "2022-04-29", "source": "cbil" }, "geometry": { "type": "Point", "coordinates": [ -2.867958735563331, 7.275297607024964 ] } },
{ "type": "Feature", "properties": { "site_name": "CHAG Pilot - Drobo St Mary's Hospital", "country": "Ghana", "date_commissioned": "2023-02-15", "source": "cbil" }, "geometry": { "type": "Point", "coordinates": [ -2.785334, 7.586308 ] } },
{ "type": "Feature", "properties": { "site_name": "CHAG Pilot - Berekum Holy Family Hospital", "country": "Ghana", "date_commissioned": "2023-02-15", "source": "cbil" }, "geometry": { "type": "Point", "coordinates": [ -2.589546, 7.443112 ] } },
{ "type": "Feature", "properties": { "site_name": "Pediatorkope", "country": "Ghana", "date_commissioned": "2016-01-01", "source": "cluber" }, "geometry": { "type": "Point", "coordinates": [ 0.63, 5.819 ] } },
{ "type": "Feature", "properties": { "site_name": "Aglakope", "country": "Ghana", "date_commissioned": "2016-01-01", "source": "cluber" }, "geometry": { "type": "Point", "coordinates": [ 0.0656, 7.5908 ] } },
{ "type": "Feature", "properties": { "site_name": "Médina Gounas", "country": "Senegal", "date_commissioned": "2006-01-01", "source": "cluber" }, "geometry": { "type": "Point", "coordinates": [ -13.7521, 13.1466 ] } },
{ "type": "Feature", "properties": { "site_name": "Baout", "country": "Senegal", "date_commissioned": "2007-01-01", "source": "cluber" }, "geometry": { "type": "Point", "coordinates": [ -16.5335, 14.0626 ] } },
{ "type": "Feature", "properties": { "site_name": "Diamiadio", "country": "Senegal", "date_commissioned": "2007-01-01", "source": "cluber" }, "geometry": { "type": "Point", "coordinates": [ -16.5758, 14.0656 ] } },
{ "type": "Feature", "properties": { "site_name": "DIOGANE", "country": "Senegal", "date_commissioned": "2012-01-01", "source": "cluber" }, "geometry": { "type": "Point", "coordinates": [ -16.6475, 13.8706 ] } },
{ "type": "Feature", "properties": { "site_name": "Diaoulé", "country": "Senegal", "date_commissioned": "2007-01-01", "source": "cluber" }, "geometry": { "type": "Point", "coordinates": [ -16.2167, 14.3667 ] } },
{ "type": "Feature", "properties": { "site_name": "Ndiebel", "country": "Senegal", "date_commissioned": "2007-01-01", "source": "cluber" }, "geometry": { "type": "Point", "coordinates": [ -16.15, 14.35 ] } },
{ "type": "Feature", "properties": { "site_name": "Babadi", "country": "Senegal", "date_commissioned": "2012-01-01", "source": "cluber" }, "geometry": { "type": "Point", "coordinates": [ -15.5, 12.85 ] } },
{ "type": "Feature", "properties": { "site_name": "Bani", "country": "Senegal", "date_commissioned": "2012-01-01", "source": "cluber" }, "geometry": { "type": "Point", "coordinates": [ -12.8731, 13.829 ] } },
{ "type": "Feature", "properties": { "site_name": "Dandone", "country": "Senegal", "date_commissioned": "2012-01-01", "source": "cluber" }, "geometry": { "type": "Point", "coordinates": [ -15.85, 12.8667 ] } },
{ "type": "Feature", "properties": { "site_name": "Francounda Diola (Bajicounda)", "country": "Senegal", "date_commissioned": "2012-01-01", "source": "cluber" }, "geometry": { "type": "Point", "coordinates": [ -15.916, 12.7109 ] } },
{ "type": "Feature", "properties": { "site_name": "Niomoune", "country": "Senegal", "date_commissioned": "2016-01-01", "source": "cluber" }, "geometry": { "type": "Point", "coordinates": [ -16.65, 12.6333 ] } },
{ "type": "Feature", "properties": { "site_name": "Bossinkang", "country": "Senegal", "date_commissioned": "2012-01-01", "source": "cluber" }, "geometry": { "type": "Point", "coordinates": [ -16.57, 13.73 ] } },
{ "type": "Feature", "properties": { "site_name": "Djinack Barra", "country": "Senegal", "date_commissioned": "2012-01-01", "source": "cluber" }, "geometry": { "type": "Point", "coordinates": [ -15.4922, 13.6019 ] } },
{ "type": "Feature", "properties": { "site_name": "FALIA", "country": "Senegal", "date_commissioned": "2012-01-01", "source": "cluber" }, "geometry": { "type": "Point", "coordinates": [ -16.6813, 13.9199 ] } },
{ "type": "Feature", "properties": { "site_name": "MOUNDE", "country": "Senegal", "date_commissioned": "2012-01-01", "source": "cluber" }, "geometry": { "type": "Point", "coordinates": [ -16.65, 13.95 ] } },
{ "type": "Feature", "properties": { "site_name": "THIALANE", "country": "Senegal", "date_commissioned": "2012-01-01", "source": "cluber" }, "geometry": { "type": "Point", "coordinates": [ -16.6278, 13.8887 ] } },
{ "type": "Feature", "properties": { "site_name": "Dionewar-Niodor", "country": "Senegal", "date_commissioned": "2008-01-01", "source": "cluber" }, "geometry": { "type": "Point", "coordinates": [ -16.717, 13.867 ] } },
{ "type": "Feature", "properties": { "site_name": "Gababé", "country": "Senegal", "date_commissioned": "2016-01-01", "source": "cluber" }, "geometry": { "type": "Point", "coordinates": [ -13.55, 16.1167 ] } },
{ "type": "Feature", "properties": { "site_name": "Ndellé", "country": "Senegal", "date_commissioned": "2008-01-01", "source": "cluber" }, "geometry": { "type": "Point", "coordinates": [ -16.2881, 16.1678 ] } },
{ "type": "Feature", "properties": { "site_name": "Oudalaye", "country": "Senegal", "date_commissioned": "2016-01-01", "source": "cluber" }, "geometry": { "type": "Point", "coordinates": [ -12.4348, 14.1171 ] } },
{ "type": "Feature", "properties": { "site_name": "Vélingara", "country": "Senegal", "date_commissioned": "2006-01-01", "source": "cluber" }, "geometry": { "type": "Point", "coordinates": [ -14.1059, 13.1441 ] } },
{ "type": "Feature", "properties": { "site_name": "Kisiizi", "country": "Uganda", "date_commissioned": "2009-01-01", "source": "cluber" }, "geometry": { "type": "Point", "coordinates": [ 29.9625, -0.9957 ] } },
{ "type": "Feature", "properties": { "site_name": "Kabunyata / Kamira", "country": "Uganda", "date_commissioned": "2013-01-01", "source": "cluber" }, "geometry": { "type": "Point", "coordinates": [ 32.71, 1.05 ] } }
]
}
